STATION CODE,LOCATIONS,STATE,LATITUDE,LONGITUDE,YEAR,mean_temp,Qi_temp,WiQi_temp,mean_ph,Qi_ph,WiQi_ph,mean_conductivity,Qi_conductivity,WiQi_conductivity,mean_bod,Qi_bod,WiQi_bod,mean_nitratenitrite,Qi_nitratenitrite,WiQi_nitratenitrite,mean_fecalcoliform,Qi_fecalcoliform,WiQi_fecalcoliform,WQI
1517,"B/W. - TUNGBHADRA RIVER NEAR KURNOOL, A.P.",ANDHRA PRADESH,15.943006,77.421229,2014,28.5,114,11.4,7.9,60,6.6,1687,674.8,2.6992,0.9,15,1.65,4.6,2.3,0.23,0,0,0,22.5792
1518,"B/W. - NANDYAL, KURNOOL DIST., A.P.",ANDHRA PRADESH,15.478569,78.483093,2014,29.6,118.4,11.84,7.9,60,6.6,3720,1488,5.952,1.4,23.33333333,2.566666667,8.4,4.2,0.42,0,0,0,27.37866667
1519,"B/W. - NAGIRI, CHITTOOR DIST., A.P",ANDHRA PRADESH,13.320052,79.585628,2014,29.2,116.8,11.68,7.9,60,6.6,1131,452.4,1.8096,1.4,23.33333333,2.566666667,1.7,0.85,0.085,0,0,0,22.74126667
1520,"B/W. - SWARNAMUKHI RIVER, SRIKALAHASTI, CHITTOOR DIST., A.P.",ANDHRA PRADESH,13.750713,79.696128,2014,31.1,124.4,12.44,7.9,60,6.6,966,386.4,1.5456,1.3,21.66666667,2.383333333,4.6,2.3,0.23,0,0,0,23.19893333
1521,"O/W. - NEAR RAMA TEMPLE , WARD NO.2 , MINDI , VISAKHAPATNAM, A.P",ANDHRA PRADESH,17.682013,83.187478,2014,25,100,10,7.7,46.66666667,5.133333333,1790,716,2.864,1,16.66666667,1.833333333,5.4,2.7,0.27,9,45,7.2,27.30066667
1522,"O/W. PEDDANUYYI - VIZIANAGARAM, A.P",ANDHRA PRADESH,18.106658,83.395551,2014,26,104,10.4,7.4,26.66666667,2.933333333,962,384.8,1.5392,1.1,18.33333333,2.016666667,1.4,0.7,0.07,16,80,12.8,29.7592
1523,"B/W. - NEAR M/S ANDHRA SUGARS LTD. , KOVVUR , W.G.DIST., A.P",ANDHRA PRADESH,16.801337,81.235345,2014,27,108,10.8,7.9,60,6.6,347,138.8,0.5552,1,16.66666667,1.833333333,0.2,0.1,0.01,3,15,2.4,22.19853333
1524,"O/W. -NEAR PARTAP NAGAR BRIIDGE -KAKINADA , E.G.DIST., A.P",ANDHRA PRADESH,16.971834,82.223767,2014,26,104,10.4,7.4,26.66666667,2.933333333,1904,761.6,3.0464,1.2,20,2.2,1.5,0.75,0.075,4,20,3.2,21.85473333
1795,"B/W. - PANCHAYAT OFFICE , , BOLLARAM (V) MEDAK DIST., A.P",ANDHRA PRADESH,17.524157,78.323286,2014,32,128,12.8,7.7,46.66666667,5.133333333,3180,1272,5.088,6.8,113.3333333,12.46666667,8,4,0.4,10,50,8,43.888
1810,"B/W - SRI RAMNAGAR COLONY, SAKKAR NAGAR, BODHAN, NIZAMABAD DIST. , A.P",ANDHRA PRADESH,18.665148,77.90389,2014,28,112,11.2,7.5,33.33333333,3.666666667,1462,584.8,2.3392,1,16.66666667,1.833333333,5,2.5,0.25,10,50,8,27.2892
1811,"B/W. - PRIMARY SCHOOL - RUDRAVELLI (V) , BIBINAGAR (M), NALGONDA DIST., A.P",ANDHRA PRADESH,17.412831,78.786713,2014,29,116,11.6,6.9,-6.666666667,-0.733333333,4010,1604,6.416,1.8,30,3.3,2,1,0.1,10,50,8,28.68266667
3089,"HAND PUMP AT TANAM VILL., VISHAKHAPATNAM, A.P.",ANDHRA PRADESH,17.646325,83.069694,2014,25,100,10,7.7,46.66666667,5.133333333,2951,1180.4,4.7216,1.2,20,2.2,4.7,2.35,0.235,4,20,3.2,25.48993333
3090,"HAND PUMP AT PITTAVANIPALEM, VISHAKHAPATNAM , A.P.",ANDHRA PRADESH,17.694568,83.231293,2014,26,104,10.4,7.2,13.33333333,1.466666667,2311,924.4,3.6976,1,16.66666667,1.833333333,8.6,4.3,0.43,120,600,96,113.8276
3091,"BORE WELL AT KAPULUPPADA DUMPSITE, VISHAKHAPATNAM, A.P.",ANDHRA PRADESH,17.835345,83.384281,2014,25,100,10,7.8,53.33333333,5.866666667,2608,1043.2,4.1728,1,16.66666667,1.833333333,8.8,4.4,0.44,4,20,3.2,25.5128
3092,"BORE WELL AT ARINAMA AKKIVALASA, SRIKAKULAM, A.P.",ANDHRA PRADESH,18.4285,84.016742,2014,25,100,10,7.6,40,4.4,911,364.4,1.4576,1,16.66666667,1.833333333,3.5,1.75,0.175,9,45,7.2,25.06593333
3093,"B/W AT ALLADAPALEM VILLAGE, PYDIBHIMAVARAM, DISTT SRIKAKULAM, A.P.",ANDHRA PRADESH,18.27049,83.786294,2014,25,100,10,7.9,60,6.6,2096,838.4,3.3536,1,16.66666667,1.833333333,6.3,3.15,0.315,4,20,3.2,25.30193333
27,B/w at Peddavoora ,ANDHRA PRADESH,16.727995,79.209162,2014,30,120,12,7.9,60,6.6,497,198.8,0.7952,1,16.66666667,1.833333333,3,1.5,0.15,10,50,8,29.37853333
1533,"*DIGBOI, TINSUKIA DISTT.,  ASSAM",ASSAM,27.395147,95.630023,2014,23.5,94,9.4,6.5,-33.33333333,-3.666666667,748,299.2,1.1968,1.4,23.33333333,2.566666667,7,3.5,0.35,18,90,14.4,24.2468
1534,"*KARBI  ANGLONG DISTT., ASSAM",ASSAM,26.186085,93.581269,2014,23.5,94,9.4,6.4,-40,-4.4,338,135.2,0.5408,1.1,18.33333333,2.016666667,0.7,0.35,0.035,75,375,60,67.59246667
1535,"*SIBSAGAR , ASSAM",ASSAM,26.98261,94.642452,2014,24.5,98,9.8,7,0,0,333,133.2,0.5328,1.4,23.33333333,2.566666667,0.5,0.25,0.025,0,0,0,12.92446667
1536,"*SIBSAGAR, ASSAM",ASSAM,26.97261,94.632452,2014,22.5,90,9,5.7,-86.66666667,-9.533333333,791,316.4,1.2656,1.9,31.66666667,3.483333333,0.3,0.15,0.015,0,0,0,4.2306
1537,"*(JORHAT, ASSAM",ASSAM,26.74652,94.202586,2014,24.5,98,9.8,7,0,0,510,204,0.816,2.2,36.66666667,4.033333333,3.1,1.55,0.155,54,270,43.2,58.00433333
1538,"*SILCHAR, ASSAM",ASSAM,24.833271,92.778905,2014,22,88,8.8,5.1,-126.6666667,-13.93333333,125,50,0.2,0.7,11.66666667,1.283333333,3.7,1.85,0.185,18,90,14.4,10.935
1539,"*BARPETA, ASSAM",ASSAM,26.321599,90.982067,2014,27.5,110,11,6.8,-13.33333333,-1.466666667,599,239.6,0.9584,2,33.33333333,3.666666667,1.5,0.75,0.075,0,0,0,14.2334
1540,"*BONAIGAON, ASSAM",ASSAM,26.500999,90.535236,2014,27.5,110,11,5.9,-73.33333333,-8.066666667,446,178.4,0.7136,1.1,18.33333333,2.016666667,0.3,0.15,0.015,0,0,0,5.6786
1541,"*GUWAHATI, ASSAM",ASSAM,26.144517,91.736237,2014,23,92,9.2,6.4,-40,-4.4,1048,419.2,1.6768,2.4,40,4.4,9.8,4.9,0.49,120,600,96,107.3668
1542,"*GUWAHATI, ASSAM",ASSAM,26.154517,91.746237,2014,25,100,10,6.9,-6.666666667,-0.733333333,716,286.4,1.1456,1.5,25,2.75,0.9,0.45,0.045,18,90,14.4,27.60726667
2243,"GROUND WATER FROM LEDO, MARGHERITA",ASSAM,27.291177,95.738462,2014,23,92,9.2,5.7,-86.66666667,-9.533333333,591,236.4,0.9456,0.8,13.33333333,1.466666667,8.3,4.15,0.415,0,0,0,2.493933333
2244,GROUND WATER FROM NAZIRA,ASSAM,26.900658,94.722579,2014,23,92,9.2,6.6,-26.66666667,-2.933333333,562,224.8,0.8992,1.1,18.33333333,2.016666667,3.6,1.8,0.18,4650,23250,3720,3729.362533
2245,GROUND WATER FROM NUMALIGARH (NEAR NRL TE LABOR COLONY),ASSAM,25.4428,81.867059,2014,26.5,106,10.6,5.7,-86.66666667,-9.533333333,248,99.2,0.3968,1,16.66666667,1.833333333,2.5,1.25,0.125,230,1150,184,187.4218
2246,GROUND WATER FROM SEMENCHAPARI,ASSAM,27.717388,94.886406,2014,21,84,8.4,6.6,-26.66666667,-2.933333333,544,217.6,0.8704,0.8,13.33333333,1.466666667,0.1,0.05,0.005,0,0,0,7.808733333
2247,GROUND WATER FROM SILAPATHAR,ASSAM,27.595294,94.724003,2014,21,84,8.4,6.2,-53.33333333,-5.866666667,649,259.6,1.0384,0.5,8.333333333,0.916666667,3.3,1.65,0.165,0,0,0,4.6534
2248,GROUND WATER FROM LAKHIMPUR TOWN,ASSAM,27.949079,80.782401,2014,26,104,10.4,6.6,-26.66666667,-2.933333333,817,326.8,1.3072,2.2,36.66666667,4.033333333,5.6,2.8,0.28,0,0,0,13.0872
2249,GROUND WATER FROM TEZPUR (MISSION CHARIALI),ASSAM,26.660782,92.775492,2014,27,108,10.8,6.1,-60,-6.6,195,78,0.312,1.1,18.33333333,2.016666667,1.3,0.65,0.065,0,0,0,6.593666667
2250,GROUND WATER FROM NAGAON (PANIGAON),ASSAM,26.349916,92.697737,2014,28.5,114,11.4,6.6,-26.66666667,-2.933333333,475,190,0.76,0.6,10,1.1,1.6,0.8,0.08,0,0,0,10.40666667
2251,GROUND WATER FROM JAGIROAD NEAR HPC EFFLUENT DISCHARGE POINT,ASSAM,26.13084,92.213829,2014,27,108,10.8,6.5,-33.33333333,-3.666666667,1322,528.8,2.1152,2.4,40,4.4,7.3,3.65,0.365,37,185,29.6,43.61353333
2252,GROUND WATER NEAR MSW DUMPING SITE AT GARCHUK-GUWAHATI,ASSAM,26.105147,91.712526,2014,24,96,9.6,6.4,-40,-4.4,417,166.8,0.6672,1.3,21.66666667,2.383333333,0.1,0.05,0.005,0,0,0,8.255533333
2253,GROUND WATER FROM NALBARI,ASSAM,26.444619,91.441053,2014,25.5,102,10.2,6.9,-6.666666667,-0.733333333,601,240.4,0.9616,1.1,18.33333333,2.016666667,5.5,2.75,0.275,0,0,0,12.71993333
2254,GROUND WATER FROM BARPETA ROAD(RLY STATION),ASSAM,26.502036,90.964722,2014,28.6,114.4,11.44,6.9,-6.666666667,-0.733333333,1038,415.2,1.6608,0.3,5,0.55,0.2,0.1,0.01,465,2325,372,384.9274667
2255,"GROUND WATER NEAR BPRL, DHALIGAON",ASSAM,26.518714,90.530509,2014,29.3,117.2,11.72,6.9,-6.666666667,-0.733333333,747,298.8,1.1952,0.8,13.33333333,1.466666667,6.1,3.05,0.305,0,0,0,13.95353333
2256,GROUND WATER FROM KOKRAJHAR DISTRICT (HS SCHOOL ),ASSAM,26.403933,90.262958,2014,28.5,114,11.4,6.5,-33.33333333,-3.666666667,515,206,0.824,0.6,10,1.1,4,2,0.2,46,230,36.8,46.65733333
2257,GROUND WATER FROM DHUBRI DISTRICT (COLLEGE NAGAR ),ASSAM,26.028086,89.970847,2014,29.1,116.4,11.64,7.2,13.33333333,1.466666667,883,353.2,1.4128,0.9,15,1.65,0.3,0.15,0.015,1150,5750,920,936.1844667
2258,GROUND WATER FROM GOALPARA DIST. (GOALPARA COLLEGE ),ASSAM,26.170714,90.626658,2014,30,120,12,6.6,-26.66666667,-2.933333333,539,215.6,0.8624,0.8,13.33333333,1.466666667,3,1.5,0.15,0,0,0,11.54573333
2259,GROUND WATER FROM DIPHU (GOVT. COLLEGE),ASSAM,25.8425,93.425691,2014,28.5,114,11.4,7.4,26.66666667,2.933333333,1515,606,2.424,1.8,30,3.3,1.6,0.8,0.08,0,0,0,20.13733333
2261,GROUND WATER FROM HAFLONG,ASSAM,25.16331,93.012824,2014,16,64,6.4,7.1,6.666666667,0.733333333,566,226.4,0.9056,2.2,36.66666667,4.033333333,0.2,0.1,0.01,0,0,0,12.08226667
2262,GROUND WATER FROM KARIMGANJ (COLLEGE),ASSAM,24.866668,92.367028,2014,12,48,4.8,6.5,-33.33333333,-3.666666667,330,132,0.528,0.9,15,1.65,4.7,2.35,0.235,0,0,0,3.546333333
2263,GROUND WATER FROM HIALAKANDI (NEAR ASTC BUS STAND ),ASSAM,24.676497,92.570576,2014,16.5,66,6.6,6.6,-26.66666667,-2.933333333,363,145.2,0.5808,0.5,8.333333333,0.916666667,1.1,0.55,0.055,0,0,0,5.219133333
2264,GROUND WATER IN PANCHGRAM MARKET NEAR CACHAR PAPER MILL,ASSAM,24.852796,92.592709,2014,17.5,70,7,6.5,-33.33333333,-3.666666667,662,264.8,1.0592,3.6,60,6.6,2.3,1.15,0.115,455,2275,364,375.1075333
2054,RAMHLUM (NORTHERN PART),MIZORAM,23.747536,92.726354,2014,19.6,78.4,7.84,7.1,6.666666667,0.733333333,238,95.2,0.3808,1.2,20,2.2,0.1,0.05,0.005,9,45,7.2,18.35913333
2055,MISSION VENGTHLANG (SOUTHERN PART),MIZORAM,23.708669,92.719416,2014,19.3,77.2,7.72,7,0,0,406,162.4,0.6496,1,16.66666667,1.833333333,0.1,0.05,0.005,55,275,44,54.20793333
1555,"AT KALA AMB, H.P",HIMACHAL PRADESH,30.499231,77.207026,2014,24.3,97.2,9.72,7.7,46.66666667,5.133333333,475,190,0.76,0.8,13.33333333,1.466666667,0.5,0.25,0.025,2,10,1.6,18.705
1556,"AT PAONTA SAHIB, H.P",HIMACHAL PRADESH,30.445283,77.602057,2014,22.3,89.2,8.92,7.6,40,4.4,521,208.4,0.8336,0.5,8.333333333,0.916666667,0.7,0.35,0.035,2,10,1.6,16.70526667
1872,SHIMLA D/S OF MSW DUMPING SIOT,HIMACHAL PRADESH,31.104814,77.173403,2014,13,52,5.2,7,0,0,489,195.6,0.7824,6.9,115,12.65,2.5,1.25,0.125,17,85,13.6,32.3574
1874,SOLAN-D/S OF MSW DUMPING SIOT-,HIMACHAL PRADESH,30.904486,77.096736,2014,17.7,70.8,7.08,7.5,33.33333333,3.666666667,389,155.6,0.6224,1.2,20,2.2,1.9,0.95,0.095,15,75,12,25.66406667
1875,MANDI-D/S OF MSW DUMPING SIOT,HIMACHAL PRADESH,31.589201,76.91821,2014,16,64,6.4,8.3,86.66666667,9.533333333,357,142.8,0.5712,4.7,78.33333333,8.616666667,0.3,0.15,0.015,70,350,56,81.1362
1880,KALA AMB INDUSTRIAL AREA,HIMACHAL PRADESH,30.517055,77.228802,2014,24.3,97.2,9.72,7.9,60,6.6,585,234,0.936,3.1,51.66666667,5.683333333,0.6,0.3,0.03,2,10,1.6,24.56933333
1881,PAONTA SAHIB INDUSTRIAL AREA,HIMACHAL PRADESH,30.434722,77.602773,2014,23.3,93.2,9.32,7.5,33.33333333,3.666666667,480,192,0.768,0.8,13.33333333,1.466666667,0.8,0.4,0.04,1,5,0.8,16.06133333
2645,HAND PUMP AT NAHAN,HIMACHAL PRADESH,30.559933,77.295483,2014,22.2,88.8,8.88,7.5,33.33333333,3.666666667,632,252.8,1.0112,0.9,15,1.65,0.8,0.4,0.04,2,10,1.6,16.84786667
2646,HAND PUMP AT KALA AMB,HIMACHAL PRADESH,30.489231,77.217026,2014,22,88,8.8,7.8,53.33333333,5.866666667,979,391.6,1.5664,0.7,11.66666667,1.283333333,0.8,0.4,0.04,1,5,0.8,18.3564
19,"WELL AT ELOOR, KERALA",KERALA,10.06975,76.302937,2014,27.5,110,11,6.2,-53.33333333,-5.866666667,159,63.6,0.2544,1,16.66666667,1.833333333,2.6,1.3,0.13,150,750,120,127.3510667
22,"WELL AT CHUNGAPALLY, KERALA",KERALA,10.890341,76.073885,2014,25,100,10,6.7,-20,-2.2,114,45.6,0.1824,0.4,6.666666667,0.733333333,0.9,0.45,0.045,184,920,147.2,155.9607333
35,"WELL AT PUNALUR, KERALA",KERALA,9.009768,76.929735,2014,24,96,9.6,6,-66.66666667,-7.333333333,195,78,0.312,0.6,10,1.1,0.8,0.4,0.04,162,810,129.6,133.3186667
1581,"PAPPANAMKODE, THIRUVANANTHAPURAM, KERALA",KERALA,8.470141,76.978708,2014,25.8,103.2,10.32,6.4,-40,-4.4,354,141.6,0.5664,1.3,21.66666667,2.383333333,1.2,0.6,0.06,95,475,76,84.92973333
1582,"NEDUMANGAD, THIRUVANANTHAPURAM, KERALA",KERALA,8.608023,77.004626,2014,25.8,103.2,10.32,7.2,13.33333333,1.466666667,160,64,0.256,4,66.66666667,7.333333333,2.7,1.35,0.135,69,345,55.2,74.711
1583,"KUNDARA, KOLLAM DISTT. , KERALA",KERALA,8.960184,76.678809,2014,23,92,9.2,4.7,-153.3333333,-16.86666667,159,63.6,0.2544,0.5,8.333333333,0.916666667,0.8,0.4,0.04,1,5,0.8,-5.6556
1584,"CHERTHALA, ALLEPPY, KERALA",KERALA,9.683637,76.336538,2014,28.3,113.2,11.32,7.7,46.66666667,5.133333333,177,70.8,0.2832,0.8,13.33333333,1.466666667,0,0,0,160,800,128,146.2032
1585,"VYTTILA, ERNAKULAM DISTT. , KERALA",KERALA,9.966654,76.316813,2014,28.6,114.4,11.44,7.7,46.66666667,5.133333333,405,162,0.648,3.1,51.66666667,5.683333333,5.2,2.6,0.26,76,380,60.8,83.96466667
1586,"EDAYAR ERNAKULAM DISTT., KERALA",KERALA,9.872489,76.551713,2014,27.8,111.2,11.12,5.7,-86.66666667,-9.533333333,328,131.2,0.5248,1,16.66666667,1.833333333,5.7,2.85,0.285,7,35,5.6,9.8298
1587,"KALAMASSERY ERNAKULAM DISTT. , KERALA",KERALA,10.057906,76.346362,2014,28,112,11.2,6.9,-6.666666667,-0.733333333,248,99.2,0.3968,0.9,15,1.65,8.1,4.05,0.405,116,580,92.8,105.7184667
1588,"PUNKUNNAM TRISSUR DISTT. , KERALA",KERALA,10.536403,76.198659,2014,29,116,11.6,7.6,40,4.4,270,108,0.432,1,16.66666667,1.833333333,1.5,0.75,0.075,160,800,128,146.3403333
1589,"MALAPURAM , KERALA",KERALA,11.073182,76.074,2014,29.3,117.2,11.72,6.8,-13.33333333,-1.466666667,285,114,0.456,0.6,10,1.1,0.7,0.35,0.035,2,10,1.6,13.44433333
1590,"MAVOOR, KOZHIKKODE DISTT. , KERALA",KERALA,11.267459,75.942523,2014,26,104,10.4,6.7,-20,-2.2,101,40.4,0.1616,0.6,10,1.1,1.6,0.8,0.08,181,905,144.8,154.3416
1591,"KANNUR (MUNICIPALITY) KANNUR DISTTM , KERALA",KERALA,11.874477,75.370366,2014,29,116,11.6,5.5,-100,-11,99,39.6,0.1584,1,16.66666667,1.833333333,3.3,1.65,0.165,2,10,1.6,4.356733333
1592,"PAYYANNUR, KANNUR DISTT. , KERALA",KERALA,12.105069,75.205834,2014,28,112,11.2,6.6,-26.66666667,-2.933333333,164,65.6,0.2624,1.2,20,2.2,2.3,1.15,0.115,1,5,0.8,11.64406667
2308,FATHIMAPURAM (CHANGANASSERY),KERALA,9.443957,76.553158,2014,28.3,113.2,11.32,6.5,-33.33333333,-3.666666667,281,112.4,0.4496,0.4,6.666666667,0.733333333,5.6,2.8,0.28,795,3975,636,645.1162667
2309,KAROOR (PALA),KERALA,9.737247,76.669651,2014,28,112,11.2,5.7,-86.66666667,-9.533333333,93,37.2,0.1488,0.7,11.66666667,1.283333333,2.9,1.45,0.145,640,3200,512,515.2438
2310,VAIKOM,KERALA,9.721645,76.392667,2014,27.5,110,11,6.2,-53.33333333,-5.866666667,157,62.8,0.2512,0.5,8.333333333,0.916666667,2.7,1.35,0.135,655,3275,524,530.4362
2311,VADAVATHOOR (KOTTAYAM),KERALA,9.589686,76.563273,2014,27.3,109.2,10.92,6.2,-53.33333333,-5.866666667,137,54.8,0.2192,0.4,6.666666667,0.733333333,6.8,3.4,0.34,340,1700,272,278.3458667
2313,"SARVODAPURAM, ALAPPUZHA",KERALA,9.555005,76.317595,2014,28,112,11.2,7.8,53.33333333,5.866666667,249,99.6,0.3984,1.1,18.33333333,2.016666667,0,0,0,320,1600,256,275.4817333
2314,KUREEPUZHA (KOLLAM),KERALA,8.918216,76.574302,2014,24,96,9.6,6.4,-40,-4.4,205,82,0.328,1.2,20,2.2,2.5,1.25,0.125,160,800,128,135.853
2315,K.M.M.L. (KOLLAM),KERALA,8.893212,76.61414,2014,24,96,9.6,7.9,60,6.6,488,195.2,0.7808,1.9,31.66666667,3.483333333,1.7,0.85,0.085,111,555,88.8,109.3491333
2316,CHELLORA TRENCHING GROUND (KANNUR),KERALA,11.891269,75.425732,2014,27.5,110,11,5.2,-120,-13.2,63,25.2,0.1008,1,16.66666667,1.833333333,1.2,0.6,0.06,15,75,12,11.79413333
2317,PUNNALPETTIPPALAM (TELLICHERRY MUNICIPALITY,KERALA,11.753288,75.492878,2014,27.5,110,11,6,-66.66666667,-7.333333333,313,125.2,0.5008,1,16.66666667,1.833333333,5.5,2.75,0.275,2,10,1.6,7.8758
2320,MANJERI,KERALA,11.120298,76.119968,2014,29,116,11.6,6.6,-26.66666667,-2.933333333,237,94.8,0.3792,0.5,8.333333333,0.916666667,2.1,1.05,0.105,11,55,8.8,18.86753333
2321,LALOOR (THRISSUR),KERALA,10.51249,76.185619,2014,30,120,12,6.7,-20,-2.2,280,112,0.448,1.9,31.66666667,3.483333333,4.1,2.05,0.205,170,850,136,149.9363333
2322,OLLUR (THRISSUR),KERALA,10.480662,76.242119,2014,29.5,118,11.8,5.2,-120,-13.2,208,83.2,0.3328,53.2,886.6666667,97.53333333,2.3,1.15,0.115,155,775,124,220.5811333
2323,BRAHMAPURAM M.S.W. DUMPARK (ERNAKULAM),KERALA,10.000969,76.378781,2014,27.6,110.4,11.04,5.8,-80,-8.8,299,119.6,0.4784,0.9,15,1.65,5.5,2.75,0.275,740,3700,592,596.6434
2324,HAZARDOUS WASTE DUMP (AMBALAMUGHAL),KERALA,9.961011,76.37038,2014,27.8,111.2,11.12,7,0,0,157,62.8,0.2512,1.9,31.66666667,3.483333333,0.4,0.2,0.02,7,35,5.6,20.47453333
2327,KARUKAMANI,KERALA,10.695066,76.722486,2014,30,120,12,7,0,0,885,354,1.416,0.8,13.33333333,1.466666667,1.8,0.9,0.09,245,1225,196,210.9726667
3463,"WELL AT VELLIPARAMBA, KOZHEKODE",KERALA,11.270934,75.846133,2014,27.5,110,11,6.2,-53.33333333,-5.866666667,105,42,0.168,0.6,10,1.1,2.7,1.35,0.135,180,900,144,150.5363333
3472,"WELL OF TEMPLE PARASSINIKADAVU, KANNUR",KERALA,11.982476,75.402153,2014,29,116,11.6,7.6,40,4.4,831,332.4,1.3296,0.9,15,1.65,1.8,0.9,0.09,4,20,3.2,22.2696
3474,"WELL AT PAYANOOR, KANNUR",KERALA,12.115069,75.215834,2014,28.5,114,11.4,7.4,26.66666667,2.933333333,186,74.4,0.2976,1.4,23.33333333,2.566666667,2.3,1.15,0.115,4,20,3.2,20.5126
3475,"WELL AT KARIMBAM, KANNUR",KERALA,12.044617,75.390275,2014,27,108,10.8,6.2,-53.33333333,-5.866666667,110,44,0.176,1,16.66666667,1.833333333,2,1,0.1,0,0,0,7.042666667
2449,"VILLAGE RINGANWADA, DAMAN",DAMAN & DIU,20.411921,72.872896,2014,31,124,12.4,6.9,-6.666666667,-0.733333333,2358,943.2,3.7728,8,133.3333333,14.66666667,6.8,3.4,0.34,5,25,4,34.44613333
2452,"VILLAGE KACHIGAM, DAMAN",DAMAN & DIU,20.383917,72.883989,2014,32,128,12.8,7,0,0,1580,632,2.528,7,116.6666667,12.83333333,9.4,4.7,0.47,10,50,8,36.63133333
1985,"Dug well at 5 -Star Industrial estate, Village-Kashimira Taluka- Mira-  Bhayander District-Thane ",MAHARASHTRA,19.26666667,72.86666667,2014,22,88,8.8,7.9,60,6.6,1385,554,2.216,5,83.33333333,9.166666667,1.7,0.85,0.085,20,100,16,42.86766667
1986,Bore well at Village- Motapada Taluka- Dahanu District- Thane,MAHARASHTRA,19.68333333,72.76666667,2014,29,116,11.6,8.5,100,11,699,279.6,1.1184,5.6,93.33333333,10.26666667,0.6,0.3,0.03,15,75,12,46.01506667
1987,Bore well Village-Gokhiware Taluka- Vasai District- Thane ,MAHARASHTRA,19.41666667,72.85,2014,22,88,8.8,7.8,53.33333333,5.866666667,608,243.2,0.9728,5,83.33333333,9.166666667,1,0.5,0.05,30,150,24,48.85613333
1988,"Bore well at Gharatwadi, Village- Aliyali Taluka- Palghar District- Thane",MAHARASHTRA,19.68333333,72.76666667,2014,29,116,11.6,8.5,100,11,871,348.4,1.3936,5.2,86.66666667,9.533333333,0.6,0.3,0.03,14,70,11.2,44.75693333
1989,"Bore well at MWML site, Village-Karawla, Taloja Taluka- Panvel District- Raigad",MAHARASHTRA,19.1,72.11666667,2014,28,112,11.2,7,0,0,90,36,0.144,4,66.66666667,7.333333333,1.4,0.7,0.07,12,60,9.6,28.34733333
1993, Dug Well,MAHARASHTRA,19.83333333,72.25,2014,28,112,11.2,7.4,26.66666667,2.933333333,1016,406.4,1.6256,3,50,5.5,0.2,0.1,0.01,2,10,1.6,22.86893333
1999,"Bore well Near Gram Panchayat office. Village-Changera, Taluka- Gondia, District- Gondia.",MAHARASHTRA,21.58333333,80.25,2014,28,112,11.2,8.3,86.66666667,9.533333333,555,222,0.888,6,100,11,1.1,0.55,0.055,60,300,48,80.67633333
2001,"Tube well at water treatment plant of.Achalpur M.C, near Post Office. Village-Paratwada, Taluka- Achalpur, District- Amravati",MAHARASHTRA,21.3,77.51666667,2014,25,100,10,8.6,106.6666667,11.73333333,567,226.8,0.9072,6,100,11,43,21.5,2.15,30,150,24,59.79053333
2200, Bore Well,MAHARASHTRA,19.51666667,75.4,2014,29,116,11.6,7.8,53.33333333,5.866666667,928,371.2,1.4848,4,66.66666667,7.333333333,0.1,0.05,0.005,2,10,1.6,27.8898
2201,Dug Well,MAHARASHTRA,19.85,75.21666667,2014,28,112,11.2,7.2,13.33333333,1.466666667,1200,480,1.92,4,66.66666667,7.333333333,0.4,0.2,0.02,2,10,1.6,23.54
2203,"Hand Pump in the premises of Zilla Parishad Primary School. Village- Bhugaon,  Taluka- Wardha, District- Wardha.",MAHARASHTRA,20.66666667,78.65,2014,28,112,11.2,8,66.66666667,7.333333333,1124,449.6,1.7984,7.6,126.6666667,13.93333333,77,38.5,3.85,23,115,18.4,56.51506667
2819,"Dug well owned by Shri Deshmukh. Village- Malegaon, Taluka- Baramati, District- Pune.",MAHARASHTRA,18.1,74.5,2014,28,112,11.2,8.2,80,8.8,5495,2198,8.792,3.2,53.33333333,5.866666667,1.3,0.65,0.065,8,40,6.4,41.12366667
2820,"Dug well owned by Shri Shivaji Baban Darekar Village- Sanaswadi, Taluka- Shirur, District- Pune.",MAHARASHTRA,18.65,74.1,2014,25,100,10,7.9,60,6.6,1337,534.8,2.1392,3.8,63.33333333,6.966666667,2,1,0.1,43,215,34.4,60.20586667
2821,"Bore well at Bale railway station premises owned by  Shri. Digambar Joshi. Village- Dahegaon,Taluka- North Solapur, District- Solapur.",MAHARASHTRA,17.66666667,75.85,2014,28,112,11.2,7,0,0,433,173.2,0.6928,3.1,51.66666667,5.683333333,3,1.5,0.15,25,125,20,37.72613333
2822,"Bore well near  Chincholi. Village- Chincholi, Taluka- Mohol, District- Solapur.",MAHARASHTRA,17.76666667,75.8,2014,28,112,11.2,7,0,0,415,166,0.664,4.3,71.66666667,7.883333333,2,1,0.1,30,150,24,43.84733333
2823,"Bore well at Shete Vasti, near old Tuljapur road. Village- Tuljapur naka, Taluka- Solapur,District- Solapur.",MAHARASHTRA,17.7,75.91666667,2014,28,112,11.2,6.9,-6.666666667,-0.733333333,440,176,0.704,3.2,53.33333333,5.866666667,2.3,1.15,0.115,20,100,16,33.15233333
2825, Bore Well,MAHARASHTRA,19.56666667,75.4,2014,28,112,11.2,7.4,26.66666667,2.933333333,1090,436,1.744,5,83.33333333,9.166666667,0.2,0.1,0.01,2,10,1.6,26.654
2826,"Dug well near Railway station, Cotton Market. Village- Wardha city, Taluka- Wardha,District- Wardha.",MAHARASHTRA,20.73333333,78.6,2014,27,108,10.8,8,66.66666667,7.333333333,1173,469.2,1.8768,6,100,11,76,38,3.8,70,350,56,90.81013333
2827,"Bore well Near Railway crossing at Dongri Buzurg. Village- Dongri-Buzurg, Taluka- Tumsar,District- Bandara.",MAHARASHTRA,21.55,79.68333333,2014,27,108,10.8,8,66.66666667,7.333333333,553,221.2,0.8848,7.4,123.3333333,13.56666667,2.6,1.3,0.13,80,400,64,96.7148
2277,WELL AT VERNA INDI.ESTATE.(M/S CIPLA LIMITED),GOA,15.368606,73.944799,2014,31.9,127.6,12.76,7,0,0,868,347.2,1.3888,0.7,11.66666667,1.283333333,0.7,0.35,0.035,5,25,4,19.46713333
2278,WELL AT SANCOALE INDL.ESTATE,GOA,15.383933,73.873515,2014,30.3,121.2,12.12,6.7,-20,-2.2,767,306.8,1.2272,0.7,11.66666667,1.283333333,0.6,0.3,0.03,17,85,13.6,26.06053333
2281,WELL AT CORLIM INDL. ESTATE,GOA,15.499056,73.932308,2014,29.3,117.2,11.72,5.8,-80,-8.8,733,293.2,1.1728,0.7,11.66666667,1.283333333,0.2,0.1,0.01,36,180,28.8,34.18613333
2282,WELL AT PILERNE INDUSTRIAL ESTATE(M/S UNICHEM ),GOA,15.532268,73.797247,2014,31.3,125.2,12.52,6.4,-40,-4.4,826,330.4,1.3216,0.3,5,0.55,0.7,0.35,0.035,23,115,18.4,28.4266
3193,BORE WELL AT CUNCOLIM INDUSTRIAL ESTATE,GOA,15.183614,74.03181,2014,30.7,122.8,12.28,7,0,0,171,68.4,0.2736,1.6,26.66666667,2.933333333,0.1,0.05,0.005,8,40,6.4,21.89193333
3194,BORE WELL AT BETHORA INDUSTRIAL ESTATE,GOA,15.386662,74.032969,2014,30.5,122,12.2,6.2,-53.33333333,-5.866666667,756,302.4,1.2096,1.2,20,2.2,1.2,0.6,0.06,8,40,6.4,16.20293333
3195,BORE WELL AT MADKAIM INDUSTRIAL ESTATE,GOA,15.420499,73.92638,2014,31.6,126.4,12.64,7.3,20,2.2,829,331.6,1.3264,1.2,20,2.2,0.8,0.4,0.04,240,1200,192,210.4064
1415,"WELL OF LOOMJI, CHAUDHARY, NEAR NAYAGAON, PALI, (U/S 1 KM. FROM PALI TOWN), RAJASTHAN",RAJASTHAN,25.777107,73.349961,2014,25,100,10,8.4,93.33333333,10.26666667,2500,1000,4,1.1,18.33333333,2.016666667,1.8,0.9,0.09,4,20,3.2,29.57333333
1416,"WELL OF BHOPAL SINGH, 24 KM. FROM PALI TOWN, RAJASTHAN",RAJASTHAN,25.771089,73.323448,2014,26,104,10.4,8.4,93.33333333,10.26666667,7100,2840,11.36,1.3,21.66666667,2.383333333,3.7,1.85,0.185,4,20,3.2,37.795
1709,"WELL AT VILLAGE SANTHLA VERY NEAR BHIWADI INDUSTRIAL AREA, BHIWADI, RAJASTHAN",RAJASTHAN,28.207089,76.857682,2014,28,112,11.2,7.4,26.66666667,2.933333333,950,380,1.52,1.5,25,2.75,0.8,0.4,0.04,4,20,3.2,21.64333333
1724,"WELL OF GOOJARON KI TALAI, MOHANA ROAD SANGANER JAIPUR, RAJASTHAN",RAJASTHAN,26.798026,75.770665,2014,26,104,10.4,7.8,53.33333333,5.866666667,1590,636,2.544,0.9,15,1.65,0.7,0.35,0.035,4,20,3.2,23.69566667
2018,"VILLAGE VINAYAKIA, JODHPUR (HUKUM SINGH RATHORE)",RAJASTHAN,26.293434,73.024176,2014,22,88,8.8,7.7,46.66666667,5.133333333,4300,1720,6.88,1.4,23.33333333,2.566666667,2.6,1.3,0.13,4,20,3.2,26.71
2023,"HOTEL ORIENT PLACE, SUBHAS NAGAR, UDAIPUR",RAJASTHAN,24.584276,73.716549,2014,24,96,9.6,6.7,-20,-2.2,1500,600,2.4,1.4,23.33333333,2.566666667,2.1,1.05,0.105,4,20,3.2,15.67166667
2025,"NEAR SHREE KALYANESHWAR MPCBADEV TEMPLE, JAI SINGH PURA KHURD, JAIPUR.",RAJASTHAN,26.952338,75.869942,2014,27,108,10.8,6.9,-6.666666667,-0.733333333,2000,800,3.2,0.9,15,1.65,2,1,0.1,4,20,3.2,18.21666667
2958,"WELL OF SH. BHURA RAM, KHETRI NGAR, JHUNJHUNU, RAJASTHAN",RAJASTHAN,28.072384,75.82289,2014,27,108,10.8,6.9,-6.666666667,-0.733333333,4100,1640,6.56,1.8,30,3.3,1.8,0.9,0.09,4,20,3.2,23.21666667
2959,"WELL OF SH. BRIJA RAM, KHETRI NAGAR, JHUNJHUNU, RAJASTHAN",RAJASTHAN,28.082384,75.83289,2014,27.5,110,11,7.6,40,4.4,4300,1720,6.88,1.1,18.33333333,2.016666667,1.6,0.8,0.08,4,20,3.2,27.57666667
2960,"WELL INFRONT OF SINGHANA POLICE STATION, SINGHANA, JHUNJHUNU, RAJASTHAN",RAJASTHAN,28.095301,75.834947,2014,29.5,118,11.8,7.1,6.666666667,0.733333333,3600,1440,5.76,2,33.33333333,3.666666667,1.5,0.75,0.075,4,20,3.2,25.235
2961,"WELL OF SH MNAGAL CHAND MEENA, MANPUR MACHERI, JAIPUR, RAJASTHAN",RAJASTHAN,27.198102,75.891486,2014,26,104,10.4,7.4,26.66666667,2.933333333,670,268,1.072,1.3,21.66666667,2.383333333,0.7,0.35,0.035,4,20,3.2,20.02366667
2965,"SHRI GIRDHARI SINGH CHOUDHARY NEAR BANDI RIVER BRIDGE, PALI BYE PASS ROAD, PALI, RAJASTHAN",RAJASTHAN,25.324904,73.005239,2014,24,96,9.6,8.3,86.66666667,9.533333333,890,356,1.424,2.8,46.66666667,5.133333333,2.4,1.2,0.12,4,20,3.2,29.01066667
2966,"SHRI GIRDHARI SINGH RAJPUROHIT NEAR VILLAGE PUNAYATA, JODHPUR- SUMERPUR BYE PASS ROAD, PALI, RAJASTHAN",RAJASTHAN,25.757737,73.324348,2014,25,100,10,8.4,93.33333333,10.26666667,5700,2280,9.12,3,50,5.5,3,1.5,0.15,4,20,3.2,38.23666667
2967,"SH. POL SINGH PUROHIT, VILLAGE PUNAYATA, PALI, RAJASTHAN",RAJASTHAN,25.769872,73.310442,2014,24,96,9.6,8.4,93.33333333,10.26666667,1590,636,2.544,2.8,46.66666667,5.133333333,1.4,0.7,0.07,4,20,3.2,30.814
2968,"SH. BHANA RAM KALAL, DHARU NAGAR, NEAR MAIN MANDIA ROAD, OPP. VILLAGE MANDIA, PALI, RAJASTHAN",RAJASTHAN,25.762159,73.27705,2014,24,96,9.6,8.5,100,11,6100,2440,9.76,2,33.33333333,3.666666667,2.9,1.45,0.145,4,20,3.2,37.37166667
2969,"M/S SPECIALTY SILICA LTD., MIA ALWAR AGRO FOOD PARK, ALWAR, RAJASTHAN",RAJASTHAN,27.498873,76.702016,2014,28,112,11.2,7.5,33.33333333,3.666666667,860,344,1.376,1.7,28.33333333,3.116666667,1.4,0.7,0.07,4,20,3.2,22.62933333
2976,"SUJAN GANGA AT KETAN GATE, BHARATPUR, RAJASTHAN",RAJASTHAN,27.223613,77.496048,2014,24,96,9.6,8,66.66666667,7.333333333,6650,2660,10.64,12.5,208.3333333,22.91666667,4.9,2.45,0.245,18,90,14.4,65.135
2982,"WELL OF BIRMA RAM PATEL, SALAWAS, JODHPUR, RAJASTHAN",RAJASTHAN,26.129863,72.999201,2014,20,80,8,8,66.66666667,7.333333333,2200,880,3.52,2.4,40,4.4,0.6,0.3,0.03,4,20,3.2,26.48333333
2991,"WELL OF BHAG JI LAXMAN RAM MALI, SAKARNA BERA, BALOTRA, JODHPUR, RAJASTHAN",RAJASTHAN,26.231365,72.97381,2014,19,76,7.6,7.4,26.66666667,2.933333333,9700,3880,15.52,2.5,41.66666667,4.583333333,2.9,1.45,0.145,4,20,3.2,33.98166667
2993,"WELL OF CHOUTHA RAM PUSA PAM, LEFT SIDE OF BRIDGE LUNI, BALOTRA, RAJASTHAN",RAJASTHAN,26.241365,72.98381,2014,18,72,7.2,7.8,53.33333333,5.866666667,21000,8400,33.6,4.3,71.66666667,7.883333333,5.6,2.8,0.28,4,20,3.2,58.03
1736,"GROUND WATER QUALITY STATION SARDARNAGAR, U.P",UTTAR PRADESH,26.684689,83.556316,2014,23,92,9.2,6.9,-6.666666667,-0.733333333,1058,423.2,1.6928,5.1,85,9.35,4,2,0.2,90,450,72,91.70946667
1737,"GROUND WATER QUALITY STATION CAPTANGANJ, U.P",UTTAR PRADESH,26.927004,83.713722,2014,22.5,90,9,6.9,-6.666666667,-0.733333333,765,306,1.224,3.5,58.33333333,6.416666667,2.9,1.45,0.145,35,175,28,44.05233333
2471,"GORAKHPUR INDUSTRIAL DEVELOPMENT AUTHORITY AREA (GIDA), GORAKHPUR",UTTAR PRADESH,26.73932,83.271287,2014,21.5,86,8.6,8,66.66666667,7.333333333,491,196.4,0.7856,2.4,40,4.4,0.4,0.2,0.02,50,250,40,61.13893333
1771,"KALYANI INDUSTRIAL AREA, NADIA, WEST BENGAL",WEST BENGAL,22.977156,88.459477,2014,27.5,110,11,7.9,60,6.6,622,248.8,0.9952,1,16.66666667,1.833333333,0.2,0.1,0.01,0,0,0,20.43853333
1772,"BARASAT MUNICIPALITY NORTH 24-P, WEST BENGAL",WEST BENGAL,22.91648,88.828701,2014,28,112,11.2,7.5,33.33333333,3.666666667,782,312.8,1.2512,0.8,13.33333333,1.466666667,0.3,0.15,0.015,0,0,0,17.59953333
1777,"BEHALA CALCUTTA, WEST BENGAL",WEST BENGAL,22.49814,88.310838,2014,27.5,110,11,7.7,46.66666667,5.133333333,889,355.6,1.4224,0.7,11.66666667,1.283333333,0.3,0.15,0.015,7,35,5.6,24.45406667
1931,COSSIPORE - NORTH KOLKATA,WEST BENGAL,22.618679,88.377091,2014,26,104,10.4,7.5,33.33333333,3.666666667,2407,962.8,3.8512,0.4,6.666666667,0.733333333,0,0,0,900,4500,720,738.6512
1932,CENTRAL KOLKATA,WEST BENGAL,22.57247,88.358788,2014,26.5,106,10.6,7.6,40,4.4,992,396.8,1.5872,0.8,13.33333333,1.466666667,0.1,0.05,0.005,7,35,5.6,23.65886667
1933,"NEAR GALVANISATION UNIT, HOWRAH",WEST BENGAL,22.595769,88.263639,2014,29,116,11.6,7.6,40,4.4,873,349.2,1.3968,0.7,11.66666667,1.283333333,0.4,0.2,0.02,520,2600,416,434.7001333
1935,INSIDE KOLKATA LEATHER COMPLEX,WEST BENGAL,22.506999,88.521176,2014,28.8,115.2,11.52,7.2,13.33333333,1.466666667,1461,584.4,2.3376,0.7,11.66666667,1.283333333,0.1,0.05,0.005,2,10,1.6,18.2126
1938,BASIRHAT MUNICIPALITY,WEST BENGAL,22.657402,88.867177,2014,31.5,126,12.6,8.3,86.66666667,9.533333333,1979,791.6,3.1664,1,16.66666667,1.833333333,0.6,0.3,0.03,2,10,1.6,28.76306667
1939,BARRAKPORE MUNICIPALITY,WEST BENGAL,22.767428,88.388346,2014,27.5,110,11,7.9,60,6.6,366,146.4,0.5856,1.4,23.33333333,2.566666667,0.2,0.1,0.01,0,0,0,20.76226667
1940,NEAR THE PHOSPHATE COMPANY-RISHRA,WEST BENGAL,22.730187,88.34491,2014,28.3,113.2,11.32,7.6,40,4.4,560,224,0.896,1,16.66666667,1.833333333,0.6,0.3,0.03,0,0,0,18.47933333
1941,"NEAR FLY ASH DUMPING SITE-KUNTIGHAT, BANDEL",WEST BENGAL,22.995361,88.402922,2014,28.5,114,11.4,7.6,40,4.4,398,159.2,0.6368,0.7,11.66666667,1.283333333,0.3,0.15,0.015,0,0,0,17.73513333
2526,FULBARI BARRAGE,WEST BENGAL,26.645142,88.400657,2014,27,108,10.8,7.2,13.33333333,1.466666667,93,37.2,0.1488,0.7,11.66666667,1.283333333,0.2,0.1,0.01,75,375,60,73.7088
2528,GROUND WATER POINT INSIDE BURDWAN UNIVERSITY,WEST BENGAL,23.2392,87.8513,2014,29.3,117.2,11.72,7.3,20,2.2,774,309.6,1.2384,1.6,26.66666667,2.933333333,0.5,0.25,0.025,2,10,1.6,19.71673333
2540,SATI GHAT AT BANKURA TOWN,WEST BENGAL,23.239772,87.074118,2014,29,116,11.6,7.5,33.33333333,3.666666667,1791,716.4,2.8656,0.8,13.33333333,1.466666667,0.2,0.1,0.01,4,20,3.2,22.80893333
2545,GROUND WATER POINT AT PURULIA RK MISSION,WEST BENGAL,23.354814,86.394442,2014,29.5,118,11.8,7.1,6.666666667,0.733333333,1027,410.8,1.6432,1.4,23.33333333,2.566666667,4,2,0.2,8,40,6.4,23.3432
2546,ULUBERIA COLLEGE AT HOWRAH,WEST BENGAL,22.469347,88.107326,2014,27.5,110,11,7.9,60,6.6,978,391.2,1.5648,0.5,8.333333333,0.916666667,0.4,0.2,0.02,4,20,3.2,23.30146667
2547,"AMTOLA ON DIAMOND HARBOUR ROAD, 24 PARGANAS (S)",WEST BENGAL,22.365004,88.271595,2014,26.5,106,10.6,7.5,33.33333333,3.666666667,1594,637.6,2.5504,0.8,13.33333333,1.466666667,0.3,0.15,0.015,500,2500,400,418.2987333
2548,"HIDCO OFFICE, RAJARHAT",WEST BENGAL,22.58001,88.472936,2014,28,112,11.2,7.4,26.66666667,2.933333333,1936,774.4,3.0976,0.6,10,1.1,0.2,0.1,0.01,2,10,1.6,19.94093333
1644,"JAGATPUR INDUSTRIAL AREA, CUTTACK ODISHA",ODISHA,20.494978,85.93301,2014,28,112,11.2,7.2,13.33333333,1.466666667,679,271.6,1.0864,0.4,6.666666667,0.733333333,3.5,1.75,0.175,4,20,3.2,17.8614
1645,"MADHUPATNA- KALYAN NAGAR AREA, CUTTACK, ODISHA",ODISHA,20.461648,85.86378,2014,27.5,110,11,7.2,13.33333333,1.466666667,360,144,0.576,0.6,10,1.1,3.6,1.8,0.18,28,140,22.4,36.72266667
1648,"RANIHAT- MANGALABAGH AREA, CUTTACK, ODISHA",ODISHA,20.467955,85.890194,2014,29,116,11.6,7.7,46.66666667,5.133333333,336,134.4,0.5376,6.7,111.6666667,12.28333333,4.7,2.35,0.235,143000,715000,114400,114429.7893
1652,"KALPNA - LAXMINAGAR AREA, BHUBANESWAR, ODISHA",ODISHA,20.256384,85.845842,2014,29.5,118,11.8,7,0,0,341,136.4,0.5456,0.5,8.333333333,0.916666667,3.9,1.95,0.195,23,115,18.4,31.85726667
1653,"MANCHESWAR INDUSTRIAL AREA, BHUBANESWAR, ODISHA",ODISHA,20.302881,85.856301,2014,29.5,118,11.8,7,0,0,171,68.4,0.2736,0.2,3.333333333,0.366666667,1.4,0.7,0.07,8,40,6.4,18.91026667
1654,"SECRETARIAT- GOVERNOR HOUSE- OLDBUS STAND AREA, BHUBANESWAR, ODISHA",ODISHA,20.270304,85.82188,2014,29.5,118,11.8,6.9,-6.666666667,-0.733333333,166,66.4,0.2656,1.3,21.66666667,2.383333333,0.7,0.35,0.035,33,165,26.4,40.1506
1656,"NEAR JAGANNATH TEMPLE, PURI, ODISHA",ODISHA,19.79937,85.802537,2014,26.5,106,10.6,7.9,60,6.6,1003,401.2,1.6048,0.3,5,0.55,6.9,3.45,0.345,130,650,104,123.6998
1657,"HOSPITAL - BUSSTAND- MAUSHIMA TEMPLE AREA, PURI, ODISHA",ODISHA,19.8142,85.833738,2014,26.5,106,10.6,8,66.66666667,7.333333333,808,323.2,1.2928,0.5,8.333333333,0.916666667,6,3,0.3,13,65,10.4,30.8428
1513,"B W. - KRISHNA MURTHY, D.NO. 48-16-43 AUTONAGAR VIJJAYAWADA, KRISNA DIST., A.P.",ANDHRA PRADESH,16.514189,80.630869,2013,20,80,8,7.7,46.66666667,5.133333333,1534,613.6,2.4544,0.6,10,1.1,4,2,0.2,8,40,6.4,23.28773333
1514,"B/W. - VIJAY KUMAR AUTONAGAR VIJAYAWADA, KRISHNA DIST., A.P.",ANDHRA PRADESH,16.506174,80.648015,2013,21,84,8.4,7.8,53.33333333,5.866666667,1536,614.4,2.4576,0.6,10,1.1,1,0.5,0.05,,0,0,17.87426667
1515,"B/W. - NAGARAM(V), PALVONCHA, KHAMMAM DIST., A.P.",ANDHRA PRADESH,17.605758,80.746724,2013,22,88,8.8,6.8,-13.33333333,-1.466666667,1830,732,2.928,0.6,10,1.1,2,1,0.1,,0,0,11.46133333
1516,B W OF NAVLOK GARDENS NELLORE AP,ANDHRA PRADESH,14.466335,80.017161,2013,22,88,8.8,8.5,100,11,771,308.4,1.2336,0.6,10,1.1,1,0.5,0.05,,0,0,22.1836
1517,"B/W. - TUNGBHADRA RIVER NEAR KURNOOL, A.P.",ANDHRA PRADESH,15.943006,77.421229,2013,27.5,110,11,8.2,80,8.8,1200,480,1.92,2.3,38.33333333,4.216666667,3,1.5,0.15,,0,0,26.08666667
1518,"B/W. - NANDYAL, KURNOOL DIST., A.P.",ANDHRA PRADESH,15.478569,78.483093,2013,26,104,10.4,7.7,46.66666667,5.133333333,1042,416.8,1.6672,2.6,43.33333333,4.766666667,5,2.5,0.25,40,200,32,54.2172
1519,"B/W. - NAGIRI, CHITTOOR DIST., A.P",ANDHRA PRADESH,13.320052,79.585628,2013,27.8,111.2,11.12,7.8,53.33333333,5.866666667,1100,440,1.76,2.2,36.66666667,4.033333333,2,1,0.1,70,350,56,78.88
1520,"B/W. - SWARNAMUKHI RIVER, SRIKALAHASTI, CHITTOOR DIST., A.P.",ANDHRA PRADESH,13.750713,79.696128,2013,30.3,121.2,12.12,7.9,60,6.6,1140,456,1.824,2.3,38.33333333,4.216666667,2,1,0.1,39,195,31.2,56.06066667
1521,"O/W. - NEAR RAMA TEMPLE , WARD NO.2 , MINDI , VISAKHAPATNAM, A.P",ANDHRA PRADESH,17.682013,83.187478,2013,26,104,10.4,7.2,13.33333333,1.466666667,1459,583.6,2.3344,1.2,20,2.2,10,5,0.5,50,250,40,56.90106667
1522,"O/W. PEDDANUYYI - VIZIANAGARAM, A.P",ANDHRA PRADESH,18.106658,83.395551,2013,26.4,105.6,10.56,7.3,20,2.2,843,337.2,1.3488,,0,0,2,1,0.1,,0,0,14.2088
1523,"B/W. - NEAR M/S ANDHRA SUGARS LTD. , KOVVUR , W.G.DIST., A.P",ANDHRA PRADESH,16.801337,81.235345,2013,26,104,10.4,7,0,0,248,99.2,0.3968,,0,0,0,0,0,,0,0,10.7968
1524,"O/W. -NEAR PARTAP NAGAR BRIIDGE -KAKINADA , E.G.DIST., A.P",ANDHRA PRADESH,16.971834,82.223767,2013,25,100,10,6.9,-6.666666667,-0.733333333,1841,736.4,2.9456,1.2,20,2.2,2,1,0.1,,0,0,14.51226667
1795,"B/W. - PANCHAYAT OFFICE , , BOLLARAM (V) MEDAK DIST., A.P",ANDHRA PRADESH,17.524157,78.323286,2013,29,116,11.6,7.8,53.33333333,5.866666667,2950,1180,4.72,5.6,93.33333333,10.26666667,15,7.5,0.75,4,20,3.2,36.40333333
1810,"B/W - SRI RAMNAGAR COLONY, SAKKAR NAGAR, BODHAN, NIZAMABAD DIST. , A.P",ANDHRA PRADESH,18.665148,77.90389,2013,29,116,11.6,8,66.66666667,7.333333333,2265,906,3.624,1.4,23.33333333,2.566666667,8,4,0.4,10,50,8,33.524
1811,"B/W. - PRIMARY SCHOOL - RUDRAVELLI (V) , BIBINAGAR (M), NALGONDA DIST., A.P",ANDHRA PRADESH,17.412831,78.786713,2013,29,116,11.6,7.8,53.33333333,5.866666667,2076,830.4,3.3216,,0,0,1,0.5,0.05,,0,0,20.83826667
3087,"BORE WELL NEAR VILLAGE SECRETARIAT, PATHAPADU (V), KRISHNA, A.P.",ANDHRA PRADESH,16.581284,80.665144,2013,20,80,8,8,66.66666667,7.333333333,1990,796,3.184,0.8,13.33333333,1.466666667,5,2.5,0.25,,0,0,20.234
3088,"B/W AT J.NARASIMHA RAO’S HOUSE, 14NOS. AREA, RAMAVARAM, NEAR MWS DUMPSITE, KOTHAGUDEM, KHAMMAM, A.P.",ANDHRA PRADESH,17.52226,80.631304,2013,22,88,8.8,6.8,-13.33333333,-1.466666667,1548,619.2,2.4768,0.4,6.666666667,0.733333333,1,0.5,0.05,2,10,1.6,12.19346667
3089,"HAND PUMP AT TANAM VILL., VISHAKHAPATNAM, A.P.",ANDHRA PRADESH,17.646325,83.069694,2013,26,104,10.4,6.8,-13.33333333,-1.466666667,3380,1352,5.408,1.2,20,2.2,10,5,0.5,,0,0,17.04133333
3090,"HAND PUMP AT PITTAVANIPALEM, VISHAKHAPATNAM , A.P.",ANDHRA PRADESH,17.694568,83.231293,2013,27,108,10.8,7.2,13.33333333,1.466666667,2972,1188.8,4.7552,1,16.66666667,1.833333333,17,8.5,0.85,240,1200,192,211.7052
3091,"BORE WELL AT KAPULUPPADA DUMPSITE, VISHAKHAPATNAM, A.P.",ANDHRA PRADESH,17.835345,83.384281,2013,26,104,10.4,6.8,-13.33333333,-1.466666667,2882,1152.8,4.6112,1,16.66666667,1.833333333,17,8.5,0.85,,0,0,16.22786667
3092,"BORE WELL AT ARINAMA AKKIVALASA, SRIKAKULAM, A.P.",ANDHRA PRADESH,18.4285,84.016742,2013,26,104,10.4,7.5,33.33333333,3.666666667,1009,403.6,1.6144,1,16.66666667,1.833333333,9,4.5,0.45,,0,0,17.9644
3093,"B/W AT ALLADAPALEM VILLAGE, PYDIBHIMAVARAM, DISTT SRIKAKULAM, A.P.",ANDHRA PRADESH,18.27049,83.786294,2013,26,104,10.4,6.9,-6.666666667,-0.733333333,2040,816,3.264,1,16.66666667,1.833333333,10,5,0.5,,0,0,15.264
1533,"*DIGBOI, TINSUKIA DISTT.,  ASSAM",ASSAM,27.395147,95.630023,2013,23,92,9.2,6.5,-33.33333333,-3.666666667,476,190.4,0.7616,1.2,20,2.2,1,0.5,0.05,,0,0,8.544933333
1534,"*KARBI  ANGLONG DISTT., ASSAM",ASSAM,26.186085,93.581269,2013,24,96,9.6,5.8,-80,-8.8,347,138.8,0.5552,1.7,28.33333333,3.116666667,1,0.5,0.05,,0,0,4.521866667
1535,"*SIBSAGAR , ASSAM",ASSAM,26.98261,94.642452,2013,24,96,9.6,6.9,-6.666666667,-0.733333333,504,201.6,0.8064,1.8,30,3.3,1,0.5,0.05,,0,0,13.02306667
1536,"*SIBSAGAR, ASSAM",ASSAM,26.97261,94.632452,2013,27,108,10.8,6.4,-40,-4.4,190,76,0.304,3,50,5.5,1,0.5,0.05,,0,0,12.254
1537,"*(JORHAT, ASSAM",ASSAM,26.74652,94.202586,2013,25,100,10,6.7,-20,-2.2,465,186,0.744,2.9,48.33333333,5.316666667,1,0.5,0.05,,0,0,13.91066667
1538,"*SILCHAR, ASSAM",ASSAM,24.833271,92.778905,2013,18,72,7.2,6.7,-20,-2.2,313,125.2,0.5008,2.4,40,4.4,2,1,0.1,,0,0,10.0008
1539,"*BARPETA, ASSAM",ASSAM,26.321599,90.982067,2013,27,108,10.8,7.1,6.666666667,0.733333333,828,331.2,1.3248,1.8,30,3.3,1,0.5,0.05,,0,0,16.20813333
1540,"*BONAIGAON, ASSAM",ASSAM,26.500999,90.535236,2013,26,104,10.4,6.1,-60,-6.6,249,99.6,0.3984,1.8,30,3.3,5.7,2.85,0.285,,0,0,7.7834
1541,"*GUWAHATI, ASSAM",ASSAM,26.144517,91.736237,2013,25,100,10,7.1,6.666666667,0.733333333,328,131.2,0.5248,0.8,13.33333333,1.466666667,1,0.5,0.05,,0,0,12.7748
1542,"*GUWAHATI, ASSAM",ASSAM,26.154517,91.746237,2013,23,92,9.2,6.4,-40,-4.4,540,216,0.864,1.3,21.66666667,2.383333333,6,3,0.3,910,4550,728,736.3473333
2243,"GROUND WATER FROM LEDO, MARGHERITA",ASSAM,27.291177,95.738462,2013,22,88,8.8,5.7,-86.66666667,-9.533333333,462,184.8,0.7392,0.6,10,1.1,1.3,0.65,0.065,,0,0,1.170866667
2244,GROUND WATER FROM NAZIRA,ASSAM,26.900658,94.722579,2013,24,96,9.6,6.7,-20,-2.2,353,141.2,0.5648,3,50,5.5,3.4,1.7,0.17,,0,0,13.6348
2245,GROUND WATER FROM NUMALIGARH (NEAR NRL TE LABOR COLONY),ASSAM,25.4428,81.867059,2013,27,108,10.8,5.8,-80,-8.8,231,92.4,0.3696,2.2,36.66666667,4.033333333,1,0.5,0.05,,0,0,6.452933333
2246,GROUND WATER FROM SEMENCHAPARI,ASSAM,27.717388,94.886406,2013,22,88,8.8,6.4,-40,-4.4,216,86.4,0.3456,1.8,30,3.3,1,0.5,0.05,,0,0,8.0956
2247,GROUND WATER FROM SILAPATHAR,ASSAM,27.595294,94.724003,2013,22,88,8.8,6.7,-20,-2.2,513,205.2,0.8208,1.1,18.33333333,2.016666667,1,0.5,0.05,,0,0,9.487466667
2248,GROUND WATER FROM LAKHIMPUR TOWN,ASSAM,27.949079,80.782401,2013,24,96,9.6,6.4,-40,-4.4,143,57.2,0.2288,2,33.33333333,3.666666667,1,0.5,0.05,,0,0,9.145466667
2249,GROUND WATER FROM TEZPUR (MISSION CHARIALI),ASSAM,26.660782,92.775492,2013,24,96,9.6,6.5,-33.33333333,-3.666666667,212,84.8,0.3392,1.5,25,2.75,2,1,0.1,,0,0,9.122533333
2250,GROUND WATER FROM NAGAON (PANIGAON),ASSAM,26.349916,92.697737,2013,29,116,11.6,7.1,6.666666667,0.733333333,910,364,1.456,2.3,38.33333333,4.216666667,1.3,0.65,0.065,,0,0,18.071
2251,GROUND WATER FROM JAGIROAD NEAR HPC EFFLUENT DISCHARGE POINT,ASSAM,26.13084,92.213829,2013,29,116,11.6,7,0,0,320,128,0.512,0.9,15,1.65,0,0,0,,0,0,13.762
2252,GROUND WATER NEAR MSW DUMPING SITE AT GARCHUK-GUWAHATI,ASSAM,26.105147,91.712526,2013,25,100,10,6.7,-20,-2.2,259,103.6,0.4144,3.3,55,6.05,1,0.5,0.05,,0,0,14.3144
2253,GROUND WATER FROM NALBARI,ASSAM,26.444619,91.441053,2013,28,112,11.2,6.8,-13.33333333,-1.466666667,282,112.8,0.4512,1.2,20,2.2,1.44,0.72,0.072,,0,0,12.45653333
2254,GROUND WATER FROM BARPETA ROAD(RLY STATION),ASSAM,26.502036,90.964722,2013,26,104,10.4,7.4,26.66666667,2.933333333,1010,404,1.616,1.4,23.33333333,2.566666667,3,1.5,0.15,,0,0,17.666
2255,"GROUND WATER NEAR BPRL, DHALIGAON",ASSAM,26.518714,90.530509,2013,27,108,10.8,6.3,-46.66666667,-5.133333333,316,126.4,0.5056,2.1,35,3.85,5,2.5,0.25,,0,0,10.27226667
2256,GROUND WATER FROM KOKRAJHAR DISTRICT (HS SCHOOL ),ASSAM,26.403933,90.262958,2013,28,112,11.2,6,-66.66666667,-7.333333333,138,55.2,0.2208,2.6,43.33333333,4.766666667,0.43,0.215,0.0215,,0,0,8.875633333
2257,GROUND WATER FROM DHUBRI DISTRICT (COLLEGE NAGAR ),ASSAM,26.028086,89.970847,2013,28,112,11.2,7,0,0,568,227.2,0.9088,2.2,36.66666667,4.033333333,1,0.5,0.05,,0,0,16.19213333
2258,GROUND WATER FROM GOALPARA DIST. (GOALPARA COLLEGE ),ASSAM,26.170714,90.626658,2013,23,92,9.2,6.1,-60,-6.6,253,101.2,0.4048,3.2,53.33333333,5.866666667,3.43,1.715,0.1715,,0,0,9.042966667
2259,GROUND WATER FROM DIPHU (GOVT. COLLEGE),ASSAM,25.8425,93.425691,2013,26,104,10.4,7,0,0,1307,522.8,2.0912,2,33.33333333,3.666666667,1,0.5,0.05,,0,0,16.20786667
2261,GROUND WATER FROM HAFLONG,ASSAM,25.16331,93.012824,2013,18,72,7.2,7.1,6.666666667,0.733333333,144,57.6,0.2304,0.7,11.66666667,1.283333333,1,0.5,0.05,,0,0,9.497066667
2262,GROUND WATER FROM KARIMGANJ (COLLEGE),ASSAM,24.866668,92.367028,2013,16,64,6.4,6.7,-20,-2.2,181,72.4,0.2896,1.2,20,2.2,5,2.5,0.25,,0,0,6.9396
2263,GROUND WATER FROM HIALAKANDI (NEAR ASTC BUS STAND ),ASSAM,24.676497,92.570576,2013,18,72,7.2,6.5,-33.33333333,-3.666666667,104,41.6,0.1664,1,16.66666667,1.833333333,0.23,0.115,0.0115,,0,0,5.544566667
2264,GROUND WATER IN PANCHGRAM MARKET NEAR CACHAR PAPER MILL,ASSAM,24.852796,92.592709,2013,17,68,6.8,6.6,-26.66666667,-2.933333333,339,135.6,0.5424,1.1,18.33333333,2.016666667,1.25,0.625,0.0625,,0,0,6.488233333
2054,RAMHLUM (NORTHERN PART),MIZORAM,23.747536,92.726354,2013,20,80,8,6.6,-26.66666667,-2.933333333,164,65.6,0.2624,1.3,21.66666667,2.383333333,0.079,0.0395,0.00395,,0,0,7.71635
2055,MISSION VENGTHLANG (SOUTHERN PART),MIZORAM,23.708669,92.719416,2013,19,76,7.6,7.5,33.33333333,3.666666667,219,87.6,0.3504,0.8,13.33333333,1.466666667,0.082,0.041,0.0041,,0,0,13.08783333
1405,"WELL AT UDAIPUR (TUBEWELL), TRIPURA",TRIPURA,23.536023,91.486986,2013,26,104,10.4,7.5,33.33333333,3.666666667,180,72,0.288,,0,0,1,0.5,0.05,,0,0,14.40466667
1406,"WELL AROUND UDAIPUR (TUBEWELL), TRIPURA",TRIPURA,23.526023,91.496986,2013,26,104,10.4,7.6,40,4.4,356,142.4,0.5696,,0,0,0,0,0,,0,0,15.3696
1730,"KUNJBAN, AGARTALA, TRIPURA",TRIPURA,23.863508,91.290307,2013,26,104,10.4,7.7,46.66666667,5.133333333,193,77.2,0.3088,,0,0,1,0.5,0.05,,0,0,15.89213333
1731,"LANKAMURA, TRIPURA",TRIPURA,23.859412,91.24579,2013,27,108,10.8,7.5,33.33333333,3.666666667,93,37.2,0.1488,,0,0,0,0,0,,0,0,14.61546667
1732,"A.D.NAGAR, AGARTALA, TRIPURA",TRIPURA,23.80041,91.272442,2013,27,108,10.8,7.7,46.66666667,5.133333333,115,46,0.184,,0,0,0,0,0,,0,0,16.11733333
1733,"SHIBNAGAR, AGARTALA, TRIPURA",TRIPURA,23.828569,91.289705,2013,27,108,10.8,7.6,40,4.4,137,54.8,0.2192,,0,0,0,0,0,,0,0,15.4192
1734,"GANDHIGRAM, AGARTALA, TRIPURA",TRIPURA,23.891869,91.277067,2013,27,108,10.8,7.5,33.33333333,3.666666667,198,79.2,0.3168,,0,0,0,0,0,,0,0,14.78346667
1620,"AT RAIPUR REGION, CHHATISSGARH",CHHATTISGARH,21.251384,81.629641,2013,28,112,11.2,7.8,53.33333333,5.866666667,568,227.2,0.9088,0.4,6.666666667,0.733333333,1,0.5,0.05,,0,0,18.7588
1621,"AT RAIPUR REGION,CHHATISSGARH",CHHATTISGARH,21.261384,81.639641,2013,28,112,11.2,7.6,40,4.4,513,205.2,0.8208,0.7,11.66666667,1.283333333,1,0.5,0.05,,0,0,17.75413333
1622,"AT BILASPUR REGION, CHHATISSGARH",CHHATTISGARH,22.079625,82.139141,2013,29,116,11.6,7.7,46.66666667,5.133333333,621,248.4,0.9936,,0,0,2,1,0.1,,0,0,17.82693333
1623,"AT BILASPUR REGION, CHHATISSGARH",CHHATTISGARH,22.089625,82.149141,2013,29,116,11.6,8.3,86.66666667,9.533333333,1766,706.4,2.8256,,0,0,4,2,0.2,,0,0,24.15893333
3171,"HAND PUMP WATER 17/10 NEPALI MOHLLA, SHANKAR NAGAR, HEAVY INDUSTRIAL AREA, BHILAI, CHHATISGARH.",CHHATTISGARH,21.197483,81.278036,2013,28,112,11.2,7.5,33.33333333,3.666666667,,0,0,1,16.66666667,1.833333333,1,0.5,0.05,,0,0,16.75
3172,"BOREWELL/ HANDPUMP IN ROGBAHRI VILLAGE, KORBA",CHHATTISGARH,22.421933,82.74348,2013,27,108,10.8,6.9,-6.666666667,-0.733333333,,0,0,0.2,3.333333333,0.366666667,1,0.5,0.05,,0,0,10.48333333
3173,"BOREWELL/ HANDPUMP IN PARSABHATA, BALCO, KORBA",CHHATTISGARH,22.403288,82.74841,2013,28,112,11.2,7.1,6.666666667,0.733333333,,0,0,0.5,8.333333333,0.916666667,1,0.5,0.05,,0,0,12.9
3174,"BOREWELL/ HANDPUMP IN DHANRAS, NTPC,KORBA",CHHATTISGARH,22.385896,82.683445,2013,27,108,10.8,7.1,6.666666667,0.733333333,,0,0,0.4,6.666666667,0.733333333,1,0.5,0.05,,0,0,12.31666667
1618,"GROUND WATER SAMPLING AT TWO POINTS IN INDUSTRIAL AREA MALANPUR, M.P",MADHYA PRADESH,26.365593,78.271812,2013,32,128,12.8,7.4,26.66666667,2.933333333,930,372,1.488,1.3,21.66666667,2.383333333,1,0.5,0.05,,0,0,19.65466667
2145,"MEHATWAS, NAGDA",MADHYA PRADESH,23.44546,75.416992,2013,,0,0,7.5,33.33333333,3.666666667,2220,888,3.552,2,33.33333333,3.666666667,4.75,2.375,0.2375,,0,0,11.12283333
2146,"BHAGATPURI VILLAGE, NAGDA",MADHYA PRADESH,23.44546,75.416992,2013,7.8,31.2,3.12,7.8,53.33333333,5.866666667,5630,2252,9.008,1.2,20,2.2,6.15,3.075,0.3075,,0,0,20.50216667
2148,"DOSIGAON, RATLAM",MADHYA PRADESH,22.758192,75.869894,2013,29,116,11.6,8.1,73.33333333,8.066666667,2220,888,3.552,1.8,30,3.3,2.06,1.03,0.103,,0,0,26.62166667
2149,"CULVERT ON A.B. ROAD, MAKSI",MADHYA PRADESH,23.257005,76.149265,2013,30,120,12,7.6,40,4.4,1068,427.2,1.7088,1.4,23.33333333,2.566666667,3,1.5,0.15,,0,0,20.82546667
3338,"HAND PUMP NEAR PANCHAYAT BHAWAN, VILLAGE TINAWALI RAIRU",MADHYA PRADESH,22.813259,75.848139,2013,29,116,11.6,7.4,26.66666667,2.933333333,280,112,0.448,0.9,15,1.65,1,0.5,0.05,,0,0,16.68133333
1555,"AT KALA AMB, H.P",HIMACHAL PRADESH,30.499231,77.207026,2013,21,84,8.4,7.3,20,2.2,347,138.8,0.5552,0.7,11.66666667,1.283333333,2,1,0.1,2,10,1.6,14.13853333
1556,"AT PAONTA SAHIB, H.P",HIMACHAL PRADESH,30.445283,77.602057,2013,22,88,8.8,7.3,20,2.2,388,155.2,0.6208,0.7,11.66666667,1.283333333,1,0.5,0.05,2,10,1.6,14.55413333
1557,"AT PARWANOO, H.P",HIMACHAL PRADESH,30.837164,76.961426,2013,21,84,8.4,7.5,33.33333333,3.666666667,316,126.4,0.5056,0.6,10,1.1,0,0,0,2,10,1.6,15.27226667
1558,"AT BADDI, H.P",HIMACHAL PRADESH,30.957826,76.791356,2013,,0,0,7.3,20,2.2,311,124.4,0.4976,0.1,1.666666667,0.183333333,3.55,1.775,0.1775,2,10,1.6,4.658433333
1559,"AT BAROTIWALA, H.P",HIMACHAL PRADESH,30.922552,76.831733,2013,,0,0,7.6,40,4.4,291,116.4,0.4656,0.6,10,1.1,5,2.5,0.25,,0,0,6.2156
1560,"AT NALAGARH, H.P",HIMACHAL PRADESH,31.044559,76.70479,2013,,0,0,8,66.66666667,7.333333333,554,221.6,0.8864,0.6,10,1.1,2,1,0.1,2,10,1.6,11.01973333
1561,"AT DAMTAL, H.P",HIMACHAL PRADESH,32.225753,75.660084,2013,20,80,8,7.5,33.33333333,3.666666667,710,284,1.136,0.5,8.333333333,0.916666667,2.9,1.45,0.145,,0,0,13.86433333
1562,"AT UNA, H.P",HIMACHAL PRADESH,31.468445,76.270775,2013,19,76,7.6,7.9,60,6.6,645,258,1.032,0.5,8.333333333,0.916666667,3,1.5,0.15,,0,0,16.29866667
1588,"PUNKUNNAM TRISSUR DISTT. , KERALA",HIMACHAL PRADESH,10.536403,76.198659,2013,29,116,11.6,7.1,6.666666667,0.733333333,246,98.4,0.3936,1.4,23.33333333,2.566666667,1,0.5,0.05,35,175,28,43.3436
1872,SHIMLA D/S OF MSW DUMPING SIOT,HIMACHAL PRADESH,31.104814,77.173403,2013,11,44,4.4,7.5,33.33333333,3.666666667,381,152.4,0.6096,10,166.6666667,18.33333333,10,5,0.5,170,850,136,163.5096
1873,DHARAMSHALA KANGRA D/S OF MSW DUMPING SIOT,HIMACHAL PRADESH,32.219042,76.323404,2013,18,72,7.2,6.3,-46.66666667,-5.133333333,285,114,0.456,0.7,11.66666667,1.283333333,4.55,2.275,0.2275,,0,0,4.0335
1874,SOLAN-D/S OF MSW DUMPING SIOT-,HIMACHAL PRADESH,30.904486,77.096736,2013,19,76,7.6,7.8,53.33333333,5.866666667,396,158.4,0.6336,1,16.66666667,1.833333333,10,5,0.5,40,200,32,48.4336
1875,MANDI-D/S OF MSW DUMPING SIOT,HIMACHAL PRADESH,31.589201,76.91821,2013,22,88,8.8,7.7,46.66666667,5.133333333,449,179.6,0.7184,12,200,22,2.5,1.25,0.125,90,450,72,108.7767333
2634,HAND PUMP AT SHIMLA,HIMACHAL PRADESH,31.114814,77.163403,2013,13,52,5.2,7.1,6.666666667,0.733333333,166,66.4,0.2656,12,200,22,5,2.5,0.25,2,10,1.6,30.04893333
1877,BADDI INDUSTRIAL AREA,HIMACHAL PRADESH,30.993408,76.774382,2013,,0,0,7.6,40,4.4,287,114.8,0.4592,0.6,10,1.1,6,3,0.3,2,10,1.6,7.8592
1878,BAROTIWALA INDUSTRIAL AREA,HIMACHAL PRADESH,30.912573,76.851524,2013,,0,0,7.6,40,4.4,304,121.6,0.4864,0.5,8.333333333,0.916666667,2,1,0.1,2,10,1.6,7.503066667
1879,NALAGARH INDUSTRIAL AREA,HIMACHAL PRADESH,30.993408,76.774382,2013,,0,0,7.9,60,6.6,552,220.8,0.8832,1.1,18.33333333,2.016666667,8,4,0.4,2,10,1.6,11.49986667
1880,KALA AMB INDUSTRIAL AREA,HIMACHAL PRADESH,30.517055,77.228802,2013,21,84,8.4,7,0,0,393,157.2,0.6288,0.8,13.33333333,1.466666667,2,1,0.1,2,10,1.6,12.19546667
1881,PAONTA SAHIB INDUSTRIAL AREA,HIMACHAL PRADESH,30.434722,77.602773,2013,21,84,8.4,7.3,20,2.2,331,132.4,0.5296,0.8,13.33333333,1.466666667,2,1,0.1,1,5,0.8,13.49626667
1882,MEHATPUR INDUSTRIAL AREA,HIMACHAL PRADESH,31.409374,76.344915,2013,18,72,7.2,7.8,53.33333333,5.866666667,804,321.6,1.2864,0.6,10,1.1,5,2.5,0.25,,0,0,15.70306667
1883,UNA INDUSTRIAL AREA,HIMACHAL PRADESH,31.458445,76.280775,2013,18,72,7.2,7.8,53.33333333,5.866666667,647,258.8,1.0352,0.6,10,1.1,3,1.5,0.15,,0,0,15.35186667
2628,HAND PUMP AT SHAMSHI,HIMACHAL PRADESH,31.89332,77.13845,2013,16,64,6.4,7.3,20,2.2,427,170.8,0.6832,2.1,35,3.85,3,1.5,0.15,2,10,1.6,14.8832
2629,HAND PUMP AT MANDI TOWN,HIMACHAL PRADESH,31.589201,76.91821,2013,19,76,7.6,7.9,60,6.6,464,185.6,0.7424,3,50,5.5,2,1,0.1,2,10,1.6,22.1424
2630,HAND PUMP AT HAMIRPUR TOWN,HIMACHAL PRADESH,31.686174,76.521309,2013,18,72,7.2,7.3,20,2.2,900,360,1.44,6.5,108.3333333,11.91666667,5,2.5,0.25,,0,0,23.00666667
2631,HAND PUMP AT NADAUN TOWN,HIMACHAL PRADESH,31.778503,76.344459,2013,18,72,7.2,6.7,-20,-2.2,721,288.4,1.1536,6.2,103.3333333,11.36666667,5,2.5,0.25,,0,0,17.77026667
2632,HAND PUMP AT BILASPUR TOWN,HIMACHAL PRADESH,31.340693,76.68747,2013,19,76,7.6,8,66.66666667,7.333333333,655,262,1.048,3,50,5.5,7,3.5,0.35,2,10,1.6,23.43133333
2633,HAND PUMP AT RECONGPEO,HIMACHAL PRADESH,31.539044,78.267548,2013,17,68,6.8,7.7,46.66666667,5.133333333,341,136.4,0.5456,1.8,30,3.3,1,0.5,0.05,2,10,1.6,17.42893333
2635,HAND PUMP AT RAMPUR,HIMACHAL PRADESH,31.449245,77.629812,2013,,0,0,8.4,93.33333333,10.26666667,100,40,0.16,,0,0,1,0.5,0.05,,0,0,10.47666667
2636,HAND PUMP AT KANGRA TEMPLE/ TOWN,HIMACHAL PRADESH,32.2728,76.315254,2013,18,72,7.2,7,0,0,672,268.8,1.0752,3.3,55,6.05,2,1,0.1,,0,0,14.4252
2637,HAND PUMP AT JWALAJI TEMPLE,HIMACHAL PRADESH,31.875072,76.321446,2013,17,68,6.8,7.2,13.33333333,1.466666667,1560,624,2.496,4.6,76.66666667,8.433333333,5,2.5,0.25,,0,0,19.446
2638,HAND PUMP AT CHINTPURNI TEMPLE/ TOWN,HIMACHAL PRADESH,31.808619,76.102843,2013,18,72,7.2,7.9,60,6.6,777,310.8,1.2432,3.2,53.33333333,5.866666667,4,2,0.2,,0,0,21.10986667
2639,HAND PUMP AT CHAMUNDA DEVI TEMPLE/ TOWN,HIMACHAL PRADESH,31.650869,76.719555,2013,17,68,6.8,7,0,0,130,52,0.208,1.2,20,2.2,3,1.5,0.15,,0,0,9.358
2640,HAND PUMP AT SANSARPUR TERRACE IA,HIMACHAL PRADESH,31.937255,75.916686,2013,23,92,9.2,7.6,40,4.4,352,140.8,0.5632,0.3,5,0.55,2,1,0.1,,0,0,14.8132
2641,HAND PUMP AT CHAMBA TOWN,HIMACHAL PRADESH,32.553363,76.125808,2013,15,60,6,7.2,13.33333333,1.466666667,722,288.8,1.1552,0.6,10,1.1,0,0,0,,0,0,9.721866667
2642,HAND PUMP AT DALHOUSIE TOWN,HIMACHAL PRADESH,32.538739,75.970998,2013,17,68,6.8,7.7,46.66666667,5.133333333,150,60,0.24,1.1,18.33333333,2.016666667,3,1.5,0.15,,0,0,14.34
2644,HAND PUMP AT PARWANOO IA,HIMACHAL PRADESH,30.837164,76.961426,2013,23,92,9.2,7.5,33.33333333,3.666666667,353,141.2,0.5648,0.6,10,1.1,0,0,0,2,10,1.6,16.13146667
2645,HAND PUMP AT NAHAN,HIMACHAL PRADESH,30.559933,77.295483,2013,19,76,7.6,7.3,20,2.2,396,158.4,0.6336,0.8,13.33333333,1.466666667,2,1,0.1,2,10,1.6,13.60026667
2646,HAND PUMP AT KALA AMB,HIMACHAL PRADESH,30.489231,77.217026,2013,20,80,8,7.4,26.66666667,2.933333333,707,282.8,1.1312,0.7,11.66666667,1.283333333,1,0.5,0.05,2,10,1.6,14.99786667
2647,HAND PUMP AT TAHLIWAL IA,HIMACHAL PRADESH,31.349201,76.268187,2013,18,72,7.2,7.4,26.66666667,2.933333333,673,269.2,1.0768,2.7,45,4.95,0,0,0,,0,0,16.16013333
1898,"PETROL PUMP OPP. HERO CYCLE, LUDHIANA",PUNJAB,30.880798,75.896242,2013,,0,0,7,0,0,,0,0,,0,0,1,0.5,0.05,,0,0,0.05
1900,"GURCHAARAN SINGH HAIBOWAL DAIRY COMPLEX, LUDHIANA",PUNJAB,30.916416,75.852805,2013,,0,0,7,0,0,,0,0,,0,0,1,0.5,0.05,,0,0,0.05
1901,"DUSSHERA GROUND INDUSTRIAL ESTATE, LUDHIANA",PUNJAB,30.921085,75.835868,2013,,0,0,7,0,0,,0,0,,0,0,1,0.5,0.05,,0,0,0.05
1902,"SHUKLA TEA STAL POINT, LUDHIANA",PUNJAB,30.900965,75.857276,2013,,0,0,7,0,0,,0,0,,0,0,1,0.5,0.05,,0,0,0.05
1903,"PUNJAB AGRICULTUREAL UNIVERSITY, LUDHIANA",PUNJAB,30.901915,75.807775,2013,,0,0,7,0,0,,0,0,,0,0,1.05,0.525,0.0525,,0,0,0.0525
19,"WELL AT ELOOR, KERALA",KERALA,10.06975,76.302937,2013,28,112,11.2,6.5,-33.33333333,-3.666666667,123,49.2,0.1968,0.8,13.33333333,1.466666667,2.3,1.15,0.115,101,505,80.8,90.1118
22,"WELL AT CHUNGAPALLY, KERALA",KERALA,10.890341,76.073885,2013,28,112,11.2,6.7,-20,-2.2,131,52.4,0.2096,0.7,11.66666667,1.283333333,1,0.5,0.05,85,425,68,78.54293333
35,"WELL AT PUNALUR, KERALA",KERALA,9.009768,76.929735,2013,24,96,9.6,5.7,-86.66666667,-9.533333333,247,98.8,0.3952,0.6,10,1.1,5,2.5,0.25,11,55,8.8,10.61186667
1581,"PAPPANAMKODE, THIRUVANANTHAPURAM, KERALA",KERALA,8.470141,76.978708,2013,29,116,11.6,5.7,-86.66666667,-9.533333333,340,136,0.544,1.1,18.33333333,2.016666667,0,0,0,80,400,64,68.62733333
1582,"NEDUMANGAD, THIRUVANANTHAPURAM, KERALA",KERALA,8.608023,77.004626,2013,29,116,11.6,6.9,-6.666666667,-0.733333333,167,66.8,0.2672,0.8,13.33333333,1.466666667,0,0,0,45,225,36,48.60053333
1583,"KUNDARA, KOLLAM DISTT. , KERALA",KERALA,8.960184,76.678809,2013,23,92,9.2,4.8,-146.6666667,-16.13333333,84,33.6,0.1344,0.5,8.333333333,0.916666667,3,1.5,0.15,11,55,8.8,3.067733333
1584,"CHERTHALA, ALLEPPY, KERALA",KERALA,9.683637,76.336538,2013,28,112,11.2,7.6,40,4.4,207,82.8,0.3312,2.6,43.33333333,4.766666667,0,0,0,225,1125,180,200.6978667
1585,"VYTTILA, ERNAKULAM DISTT. , KERALA",KERALA,9.966654,76.316813,2013,29,116,11.6,7.7,46.66666667,5.133333333,445,178,0.712,1.5,25,2.75,0,0,0,251,1255,200.8,220.9953333
1586,"EDAYAR ERNAKULAM DISTT., KERALA",KERALA,9.872489,76.551713,2013,27,108,10.8,5.8,-80,-8.8,123,49.2,0.1968,0.6,10,1.1,1,0.5,0.05,86,430,68.8,72.1468
1587,"KALAMASSERY ERNAKULAM DISTT. , KERALA",KERALA,10.057906,76.346362,2013,27,108,10.8,6.1,-60,-6.6,259,103.6,0.4144,0.5,8.333333333,0.916666667,7,3.5,0.35,121,605,96.8,102.6810667
1589,"MALAPURAM , KERALA",KERALA,11.073182,76.074,2013,29,116,11.6,6.8,-13.33333333,-1.466666667,221,88.4,0.3536,1.1,18.33333333,2.016666667,0,0,0,30,150,24,36.5036
1590,"MAVOOR, KOZHIKKODE DISTT. , KERALA",KERALA,11.267459,75.942523,2013,25,100,10,6.7,-20,-2.2,96,38.4,0.1536,0.6,10,1.1,2,1,0.1,171,855,136.8,145.9536
1591,"KANNUR (MUNICIPALITY) KANNUR DISTTM , KERALA",KERALA,11.874477,75.370366,2013,28,112,11.2,5.7,-86.66666667,-9.533333333,131,52.4,0.2096,0.5,8.333333333,0.916666667,2,1,0.1,80,400,64,66.89293333
1592,"PAYYANNUR, KANNUR DISTT. , KERALA",KERALA,12.105069,75.205834,2013,29,116,11.6,6,-66.66666667,-7.333333333,188,75.2,0.3008,1.8,30,3.3,1,0.5,0.05,46,230,36.8,44.71746667
2308,FATHIMAPURAM (CHANGANASSERY),KERALA,9.443957,76.553158,2013,28,112,11.2,7,0,0,248,99.2,0.3968,0.6,10,1.1,2,1,0.1,205,1025,164,176.7968
2309,KAROOR (PALA),KERALA,9.737247,76.669651,2013,28,112,11.2,6.4,-40,-4.4,136,54.4,0.2176,0.5,8.333333333,0.916666667,3,1.5,0.15,305,1525,244,252.0842667
2310,VAIKOM,KERALA,9.721645,76.392667,2013,28,112,11.2,6.8,-13.33333333,-1.466666667,153,61.2,0.2448,0.6,10,1.1,3,1.5,0.15,300,1500,240,251.2281333
2311,VADAVATHOOR (KOTTAYAM),KERALA,9.589686,76.563273,2013,28,112,11.2,6.6,-26.66666667,-2.933333333,123,49.2,0.1968,0.8,13.33333333,1.466666667,2,1,0.1,135,675,108,118.0301333
2313,"SARVODAPURAM, ALAPPUZHA",KERALA,9.555005,76.317595,2013,28,112,11.2,7.9,60,6.6,225,90,0.36,0.6,10,1.1,0,0,0,470,2350,376,395.26
2314,KUREEPUZHA (KOLLAM),KERALA,8.918216,76.574302,2013,23,92,9.2,5.8,-80,-8.8,196,78.4,0.3136,1.4,23.33333333,2.566666667,5,2.5,0.25,24,120,19.2,22.73026667
2315,K.M.M.L. (KOLLAM),KERALA,8.893212,76.61414,2013,24,96,9.6,8.3,86.66666667,9.533333333,485,194,0.776,2.2,36.66666667,4.033333333,2,1,0.1,11,55,8.8,32.84266667
2316,CHELLORA TRENCHING GROUND (KANNUR),KERALA,11.891269,75.425732,2013,27,108,10.8,5.8,-80,-8.8,45,18,0.072,0.6,10,1.1,1,0.5,0.05,46,230,36.8,40.022
2317,PUNNALPETTIPPALAM (TELLICHERRY MUNICIPALITY,KERALA,11.753288,75.492878,2013,28,112,11.2,5.7,-86.66666667,-9.533333333,221,88.4,0.3536,0.7,11.66666667,1.283333333,4,2,0.2,255,1275,204,207.5036
2320,MANJERI,KERALA,11.120298,76.119968,2013,29,116,11.6,6.6,-26.66666667,-2.933333333,167,66.8,0.2672,0.5,8.333333333,0.916666667,3,1.5,0.15,320,1600,256,266.0005333
2321,LALOOR (THRISSUR),KERALA,10.51249,76.185619,2013,29,116,11.6,5.8,-80,-8.8,324,129.6,0.5184,1.4,23.33333333,2.566666667,5,2.5,0.25,95,475,76,82.13506667
2322,OLLUR (THRISSUR),KERALA,10.480662,76.242119,2013,30,120,12,5.5,-100,-11,280,112,0.448,1.3,21.66666667,2.383333333,1,0.5,0.05,30,150,24,27.88133333
2323,BRAHMAPURAM M.S.W. DUMPARK (ERNAKULAM),KERALA,10.000969,76.378781,2013,28,112,11.2,6.2,-53.33333333,-5.866666667,325,130,0.52,1.2,20,2.2,0,0,0,205,1025,164,172.0533333
2324,HAZARDOUS WASTE DUMP (AMBALAMUGHAL),KERALA,9.961011,76.37038,2013,27,108,10.8,6.3,-46.66666667,-5.133333333,860,344,1.376,0.7,11.66666667,1.283333333,0,0,0,151,755,120.8,129.126
2327,KARUKAMANI,KERALA,10.695066,76.722486,2013,30,120,12,8.6,106.6666667,11.73333333,675,270,1.08,0.5,8.333333333,0.916666667,0,0,0,580,2900,464,489.73
3463,"WELL AT VELLIPARAMBA, KOZHEKODE",KERALA,11.270934,75.846133,2013,28,112,11.2,6.6,-26.66666667,-2.933333333,102,40.8,0.1632,1.1,18.33333333,2.016666667,1,0.5,0.05,740,3700,592,602.4965333
3472,"WELL OF TEMPLE PARASSINIKADAVU, KANNUR",KERALA,11.982476,75.402153,2013,28,112,11.2,6.9,-6.666666667,-0.733333333,762,304.8,1.2192,1,16.66666667,1.833333333,1,0.5,0.05,245,1225,196,209.5692
3474,"WELL AT PAYANOOR, KANNUR",KERALA,12.115069,75.215834,2013,28,112,11.2,5.9,-73.33333333,-8.066666667,207,82.8,0.3312,2,33.33333333,3.666666667,2,1,0.1,455,2275,364,371.2312
3475,"WELL AT KARIMBAM, KANNUR",KERALA,12.044617,75.390275,2013,28,112,11.2,5,-133.3333333,-14.66666667,82,32.8,0.1312,0.2,3.333333333,0.366666667,2,1,0.1,40,200,32,29.1312
1593,"WELL NEAR J.B SCHOOL, LAKSHDWEEP",LAKSHADWEEP,8.283167,73.058112,2013,29,116,11.6,7.5,33.33333333,3.666666667,949,379.6,1.5184,,0,0,,0,0,4500,22500,3600,3616.785067
1594,"WELL NEAR OTTAVATHIL PALLI, LAKSHDWEEP",LAKSHADWEEP,10.328026,72.784634,2013,29,116,11.6,7.4,26.66666667,2.933333333,1414,565.6,2.2624,,0,0,,0,0,4200,21000,3360,3376.795733
1595,"WELL NEAR CHEKKILLAM HOUSE, LAKSHDWEEP",LAKSHADWEEP,9.328026,73.784634,2013,29,116,11.6,7.6,40,4.4,734,293.6,1.1744,,0,0,,0,0,23600,118000,18880,18897.1744
1596,"WELL C/O KADAT PALLI, LAKSHDWEEP",LAKSHADWEEP,8.328026,73.784634,2013,29,116,11.6,7.7,46.66666667,5.133333333,556,222.4,0.8896,,0,0,,0,0,28500,142500,22800,22817.62293
1598,"WELL C/O PUTHIYA PALLI., LAKSHDWEEP",LAKSHADWEEP,9.528026,73.384634,2013,29,116,11.6,7.7,46.66666667,5.133333333,641,256.4,1.0256,,0,0,,0,0,3000,15000,2400,2417.758933
1599,"WELL C/O PURATHA PALLI, LAKSHDWEEP",LAKSHADWEEP,8.783167,73.558112,2013,29,116,11.6,7.5,33.33333333,3.666666667,744,297.6,1.1904,,0,0,,0,0,,0,0,16.45706667
1600,WELL C/O ANDAM PALLILAKSHDWEEP,LAKSHADWEEP,9.541739,73.116091,2013,29,116,11.6,7.3,20,2.2,941,376.4,1.5056,,0,0,,0,0,9500,47500,7600,7615.3056
1601,WELL C/O CIRCUIT HOUSELAKSHDWEEP,LAKSHADWEEP,10.852078,72.191055,2013,29,116,11.6,7.5,33.33333333,3.666666667,1559,623.6,2.4944,,0,0,,0,0,,0,0,17.76106667
1602,"WELL C/O GOVT. PRESS, LAKSHDWEEP",LAKSHADWEEP,8.295441,73.048973,2013,29,116,11.6,7.5,33.33333333,3.666666667,1543,617.2,2.4688,,0,0,,0,0,780,3900,624,641.7354667
1603,"WELL C/O OLD POLICE BARRACKS, LAKSHDWEEP",LAKSHADWEEP,9.552078,72.461055,2013,30,120,12,7.5,33.33333333,3.666666667,2284,913.6,3.6544,,0,0,,0,0,500,2500,400,419.3210667
1605,"WELL NEAR HALIPAD, LAKSHDWEEP",LAKSHADWEEP,10.541739,72.616091,2013,29,116,11.6,7.6,40,4.4,1065,426,1.704,,0,0,,0,0,750,3750,600,617.704
1606,"PUBLIC WELL OPPOSITE S.B.SCHOOL, LAKSHDWEEP",LAKSHADWEEP,11.124273,72.718352,2013,29,116,11.6,7.6,40,4.4,851,340.4,1.3616,,0,0,,0,0,55833,279165,44666.4,44683.7616
1397,"WELL AT MUTHIALPET AREA(I), PONDICHERRY",PONDICHERRY,11.93333333,79.83333333,2013,31,124,12.4,6.6,-26.66666667,-2.933333333,4740,1896,7.584,,0,0,0.89,0.445,0.0445,,0,0,17.09516667
1398,"WELL AT THENGAITHITTU AREA, (II) PONDICHERRY",PONDICHERRY,11.9,79.81666667,2013,32,128,12.8,6.5,-33.33333333,-3.666666667,1088,435.2,1.7408,,0,0,0.85,0.425,0.0425,,0,0,10.91663333
1453,"WELL AT MUTHARAPLATYAM (PWD), PONDICHERRY",PONDICHERRY,11.93333333,79.76666667,2013,31,124,12.4,6.5,-33.33333333,-3.666666667,600,240,0.96,,0,0,4.09,2.045,0.2045,,0,0,9.897833333
1454,"WELL AT KALAPET, PONDI. UNIVER. ADMN. BLOCK, PONDICHERRY",PONDICHERRY,12.16666667,79.85,2013,30,120,12,6.1,-60,-6.6,197,78.8,0.3152,,0,0,0.89,0.445,0.0445,,0,0,5.7597
1687,"NEHRU STATUE, PONDICHERRY",PONDICHERRY,12.01666667,79.85,2013,31,124,12.4,7.3,20,2.2,1263,505.2,2.0208,,0,0,0.79,0.395,0.0395,,0,0,16.6603
1688,"KATTERIKUPPAM, PODICHERRY",PONDICHERRY,12,79.7,2013,30,120,12,7.2,13.33333333,1.466666667,926,370.4,1.4816,,0,0,0,0,0,,0,0,14.94826667
1689,"CHUNMBAR RIVER, PONDICHERRY",PONDICHERRY,11.86666667,79.78333333,2013,24,96,9.6,7.7,46.66666667,5.133333333,,0,0,,0,0,0,0,0,,0,0,14.73333333
2009,KURUMBAPET,PONDICHERRY,11.91666667,79.75,2013,30,120,12,6.4,-40,-4.4,541,216.4,0.8656,,0,0,6,3,0.3,,0,0,8.7656
2010,METTUPALAYAM,PONDICHERRY,11.93333333,79.78333333,2013,32,128,12.8,6.7,-20,-2.2,1116,446.4,1.7856,,0,0,1,0.5,0.05,,0,0,12.4356
2011,URUVAIYAR,PONDICHERRY,11.88333333,79.75,2013,31,124,12.4,7.4,26.66666667,2.933333333,2620,1048,4.192,,0,0,0,0,0,,0,0,19.52533333
2012,KARUVADIKUPPAM,PONDICHERRY,11.96666667,79.8,2013,34,136,13.6,6.8,-13.33333333,-1.466666667,1148,459.2,1.8368,,0,0,0,0,0,,0,0,13.97013333
2013,"T.R.PATTINAM, KARAIKAL",PONDICHERRY,10.96805556,80.07166667,2013,25,100,10,8.5,100,11,1395,558,2.232,,0,0,0.75,0.375,0.0375,,0,0,23.2695
2014,"VADAMATTAM, KARAIKAL",PONDICHERRY,12.14805556,80.03083333,2013,25,100,10,8.7,113.3333333,12.46666667,680,272,1.088,,0,0,0.79,0.395,0.0395,,0,0,23.59416667
2446,PALLUR,PONDICHERRY,11.98333333,75.66111111,2013,27,108,10.8,6.4,-40,-4.4,326,130.4,0.5216,,0,0,4,2,0.2,,0,0,7.1216
2447,PANTHAKKAL,PONDICHERRY,11.78416667,75.61222222,2013,28,112,11.2,5.8,-80,-8.8,103,41.2,0.1648,,0,0,2.856,1.428,0.1428,,0,0,2.7076
1440,"WELL AT SOMNATH INDUSTRIAL ESTATE, DAMAN",DAMAN & DIU,20.412457,72.877741,2013,30,120,12,7.1,6.666666667,0.733333333,1324,529.6,2.1184,,0,0,4,2,0.2,,0,0,15.05173333
2448,"VILLAGE BHIMPORE,DAMAN",DAMAN & DIU,20.436896,72.831695,2013,30,120,12,6.8,-13.33333333,-1.466666667,825,330,1.32,6,100,11,8,4,0.4,,0,0,23.25333333
2450,"VILLAGE DUNETHA,DAMAN",DAMAN & DIU,20.426776,72.847007,2013,30,120,12,7,0,0,624,249.6,0.9984,,0,0,3,1.5,0.15,,0,0,13.1484
2451,"VILLAGE DABHEL,DAMAN",DAMAN & DIU,20.40115,72.892162,2013,31,124,12.4,7,0,0,1639,655.6,2.6224,12,200,22,5,2.5,0.25,,0,0,37.2724
2452,"VILLAGE KACHIGAM,DAMAN",DAMAN & DIU,20.383917,72.883989,2013,31,124,12.4,7.2,13.33333333,1.466666667,1383,553.2,2.2128,8,133.3333333,14.66666667,15,7.5,0.75,,0,0,31.49613333
2453,"VILLAGE KHANVEL,  DADRA",DADRA NAGAR HAVELI,20.126292,73.062664,2013,32,128,12.8,6.7,-20,-2.2,485,194,0.776,,0,0,1,0.5,0.05,,0,0,11.426
2455,"VILLAGE MASAT,  DADRA",DADRA NAGAR HAVELI,20.242591,73.014025,2013,31,124,12.4,6.7,-20,-2.2,2942,1176.8,4.7072,,0,0,1,0.5,0.05,,0,0,14.9572
2458,"VILLAGE,  DADRA",DADRA NAGAR HAVELI,20.322878,72.966725,2013,31,124,12.4,7.2,13.33333333,1.466666667,2656,1062.4,4.2496,,0,0,0.75,0.375,0.0375,,0,0,18.15376667
2007,"Bore well  at Savali, near Gram Panchayat office. Village-Savali,Taluka- Miraj, District- Sangli.  ",MAHARASHTRA,16.86666667,74.65,2013,25,100,10,7.2,13.33333333,1.466666667,2183,873.2,3.4928,2.2,36.66666667,4.033333333,2,1,0.1,2,10,1.6,20.6928
2008,"Dug well at  Rusulwadi-Sambarwadi. Village- Sambarwadi, Taluka- Miraj,  District- Sangli.     ",MAHARASHTRA,16.93333333,74.06666667,2013,25,100,10,7.5,33.33333333,3.666666667,1275,510,2.04,2.4,40,4.4,3,1.5,0.15,2,10,1.6,21.85666667
2202,"Dug well at Ghane Kunt, near Awashi, owned by Shri.Rajendra  Amre. Village- Ghane Kunt, Taluka- Khed, District- Ratnagiri.",MAHARASHTRA,17.61666667,73.48333333,2013,27,108,10.8,6.9,-6.666666667,-0.733333333,173,69.2,0.2768,2.4,40,4.4,1,0.5,0.05,,0,0,14.79346667
2831,"Dug well at Sakharali, near MIDC Islampur near Krishna Milk Industry. Village- Sakharali,Taluka- Walwa,District- Sangli.",MAHARASHTRA,17.06666667,74.26666667,2013,25,100,10,8,66.66666667,7.333333333,455,182,0.728,2.4,40,4.4,1,0.5,0.05,2,10,1.6,24.11133333
2832,"Dug well No.1 at Brahmanwadi-Anjanwel,owned by Shri. Vaidya. Village- Anjanwel,Taluka- Guhagar, District- Ratnagiri.",MAHARASHTRA,17.56666667,73.15,2013,28,112,11.2,7.1,6.666666667,0.733333333,86,34.4,0.1376,2.8,46.66666667,5.133333333,1,0.5,0.05,,0,0,17.25426667
2833,"Dug well No.-1 at Group Gram Panchayat at Arketwadi, near Masjid Village- Arketwadi,Taluka- Khed, District- Ratnagiri.",MAHARASHTRA,17.6,73.43333333,2013,28,112,11.2,7.8,53.33333333,5.866666667,307,122.8,0.4912,2,33.33333333,3.666666667,1,0.5,0.05,,0,0,21.27453333
2834,"Dug well No.2 at Arketwadi.Village- Arketwadi, Taluka- Khed, District- Ratnagiri.",MAHARASHTRA,17.61,73.44333333,2013,28,112,11.2,7.2,13.33333333,1.466666667,187,74.8,0.2992,2.2,36.66666667,4.033333333,1,0.5,0.05,,0,0,17.0492
2835,"Dug well No. 2, owned by  Group Gram Panchayat, Brahmanwadi- Anjanwel. Village- Anjanwel, Taluka- Guhagar, District- Ratnagiri.",MAHARASHTRA,17.55,73.15,2013,28,112,11.2,7.2,13.33333333,1.466666667,89,35.6,0.1424,2.8,46.66666667,5.133333333,2,1,0.1,,0,0,18.0424
1993,"Dug well at Village-Pandharpur , Taluka- Gangapur, District- Aurangabad  ",MAHARASHTRA,19.83333333,72.25,2013,28,112,11.2,7.6,40,4.4,673,269.2,1.0768,4,66.66666667,7.333333333,0,0,0,3,15,2.4,26.41013333
2200,"Bore well at Katpur, near Z.PSchool.Village- Katpur,Taluka- Paithan,District- Aurangabad.",MAHARASHTRA,19.51666667,75.4,2013,30,120,12,7,0,0,2968,1187.2,4.7488,3,50,5.5,0,0,0,2,10,1.6,23.8488
2201,"Dug well at Ranjangaon. Village- Ranjangaon, Taluka- Gangapur, District- Aurangabad.",MAHARASHTRA,19.85,75.21666667,2013,28,112,11.2,7.5,33.33333333,3.666666667,2032,812.8,3.2512,5,83.33333333,9.166666667,0,0,0,3,15,2.4,29.68453333
2474,UNCHAHAAR (NEAR THERMAL POWER PLANT,MAHARASHTRA,25.9,81.3,2013,21,84,8.4,7.8,53.33333333,5.866666667,706,282.4,1.1296,,0,0,0,0,0,,0,0,15.39626667
2475,"INDUSTRIAL AREA, SULTANPUR ROAD",MAHARASHTRA,26.230605,81.276104,2013,22,88,8.8,8,66.66666667,7.333333333,706,282.4,1.1296,,0,0,0,0,0,,0,0,17.26293333
2825,"Bore well at Wahegaon, near Zilla Parishet School. Village- Wahegaon, Taluka- Paithan,District- Aurangabad.",MAHARASHTRA,19.56666667,75.4,2013,28,112,11.2,7.9,60,6.6,1954,781.6,3.1264,4,66.66666667,7.333333333,0,0,0,3,15,2.4,30.65973333
1986,Bore well at Village- Motapada Taluka- Dahanu District- Thane,MAHARASHTRA,19.68333333,72.76666667,2013,27,108,10.8,8.5,100,11,880,352,1.408,4,66.66666667,7.333333333,0,0,0,13,65,10.4,40.94133333
1987,Bore well Village-Gokhiware Taluka- Vasai District- Thane ,MAHARASHTRA,19.41666667,72.85,2013,22,88,8.8,7.3,20,2.2,878,351.2,1.4048,4,66.66666667,7.333333333,1,0.5,0.05,11,55,8.8,28.58813333
1988,"Bore well at Gharatwadi, Village- Aliyali Taluka- Palghar District- Thane",MAHARASHTRA,19.68333333,72.76666667,2013,27,108,10.8,8.3,86.66666667,9.533333333,1154,461.6,1.8464,4.2,70,7.7,0,0,0,9,45,7.2,37.07973333
1999,"Bore well Near Gram Panchayat office. Village-Changera, Taluka- Gondia, District- Gondia.",MAHARASHTRA,21.58333333,80.25,2013,28,112,11.2,7.8,53.33333333,5.866666667,1006,402.4,1.6096,7,116.6666667,12.83333333,2,1,0.1,17,85,13.6,45.2096
2002,"Bore well Opp. Gajanan Maharaj Temple at  Anjangaon road. Village-Anjangaon, Taluka- Akot, District- Akola                   ",MAHARASHTRA,21.1,77.05,2013,27,108,10.8,8.3,86.66666667,9.533333333,540,216,0.864,6,100,11,2,1,0.1,11,55,8.8,41.09733333
2827,"Bore well Near Railway crossing at Dongri Buzurg. Village- Dongri-Buzurg, Taluka- Tumsar,District- Bandara.",MAHARASHTRA,21.55,79.68333333,2013,22,88,8.8,7.8,53.33333333,5.866666667,892,356.8,1.4272,6.8,113.3333333,12.46666667,2,1,0.1,170,850,136,164.6605333
1985,"Dug well at 5 -Star Industrial estate, Village-Kashimira Taluka- Mira-  Bhayander District-Thane ",MAHARASHTRA,19.26666667,72.86666667,2013,22,88,8.8,7.9,60,6.6,1517,606.8,2.4272,4.2,70,7.7,1,0.5,0.05,17,85,13.6,39.1772
1994,"Dug well at TPS-Durgapur Village-Durgapur , Taluka- Chandrapur, District- Chandrapur                   ",MAHARASHTRA,20,79.3,2013,22,88,8.8,8.1,73.33333333,8.066666667,810,324,1.296,5,83.33333333,9.166666667,1,0.5,0.05,23,115,18.4,45.77933333
2003,"Dug well at Plot No- 4, Street No. 49-C, at Nehru Bal Udyan Azad Maidan, owned by Yavatmal M.C. Village- Nehru Bal Udyan Azad Maidan, Taluka- Yavatmal, District- Yavatmal.",MAHARASHTRA,20.93333333,77.71666667,2013,20,80,8,8.8,120,13.2,1310,524,2.096,5.8,96.66666667,10.63333333,10,5,0.5,13,65,10.4,44.82933333
2819,"Dug well owned by Shri Deshmukh. Village- Malegaon, Taluka- Baramati, District- Pune.",MAHARASHTRA,18.1,74.5,2013,28,112,11.2,8.2,80,8.8,2515,1006,4.024,4.6,76.66666667,8.433333333,7,3.5,0.35,30,150,24,56.80733333
2826,"Dug well near Railway station, Cotton Market. Village- Wardha city, Taluka- Wardha,District- Wardha.",MAHARASHTRA,20.73333333,78.6,2013,22,88,8.8,8.2,80,8.8,898,359.2,1.4368,5.2,86.66666667,9.533333333,10,5,0.5,11,55,8.8,37.87013333
2828,"Dug well  near Jilla Parishet Primary school, Visapur. Village- Visapur, Taluka- Ballarpur,District- Chandrapur.",MAHARASHTRA,19.85,79.33333333,2013,22,88,8.8,8.2,80,8.8,498,199.2,0.7968,5,83.33333333,9.166666667,3,1.5,0.15,9,45,7.2,34.91346667
2203,"Hand Pump in the premises of Zilla Parishad Primary School. Village- Bhugaon,  Taluka- Wardha, District- Wardha.",MAHARASHTRA,20.66666667,78.65,2013,23,92,9.2,8.2,80,8.8,692,276.8,1.1072,5.6,93.33333333,10.26666667,2,1,0.1,11,55,8.8,38.27386667
1989,"Bore well at MWML site, Village-Karawla, Taloja Taluka- Panvel District- Raigad",MAHARASHTRA,19.1,72.11666667,2013,28,112,11.2,8.4,93.33333333,10.26666667,233,93.2,0.3728,3.8,63.33333333,6.966666667,0,0,0,25,125,20,48.80613333
2820,"Dug well owned by Shri Shivaji Baban Darekar Village- Sanaswadi, Taluka- Shirur, District- Pune.",MAHARASHTRA,18.65,74.1,2013,23,92,9.2,8.8,120,13.2,840,336,1.344,3.7,61.66666667,6.783333333,5,2.5,0.25,23,115,18.4,49.17733333
2277,WELL AT VERNA INDI.ESTATE.(M/S CIPLA LIMITED),GOA,15.368606,73.944799,2013,33,132,13.2,6.9,-6.666666667,-0.733333333,331,132.4,0.5296,1.6,26.66666667,2.933333333,0.55,0.275,0.0275,11,55,8.8,24.7571
2278,WELL AT SANCOALE INDL.ESTATE,GOA,15.383933,73.873515,2013,31,124,12.4,6.6,-26.66666667,-2.933333333,179,71.6,0.2864,0.8,13.33333333,1.466666667,1,0.5,0.05,17,85,13.6,24.86973333
2279,"WELL AT ZUARI INDUSTRIES LTD, ZUARI NAGAR",GOA,15.374478,73.872445,2013,33,132,13.2,6.7,-20,-2.2,263,105.2,0.4208,0.9,15,1.65,0.79,0.395,0.0395,,0,0,13.1103
2280,WELL AT KUDAI INDL. ESTATE(M/S CADILA HEALTHCARE LIMITED),GOA,15.461289,73.969902,2013,31,124,12.4,5.5,-100,-11,222,88.8,0.3552,0.5,8.333333333,0.916666667,1,0.5,0.05,,0,0,2.721866667
2281,WELL AT CORLIM INDL. ESTATE,GOA,15.499056,73.932308,2013,31,124,12.4,5.5,-100,-11,66,26.4,0.1056,1,16.66666667,1.833333333,1.52,0.76,0.076,,0,0,3.414933333
2282,WELL AT PILERNE INDUSTRIAL ESTATE(M/S UNICHEM ),GOA,15.532268,73.797247,2013,33,132,13.2,6.5,-33.33333333,-3.666666667,220,88,0.352,0.7,11.66666667,1.283333333,2.25,1.125,0.1125,,0,0,11.28116667
3193,BORE WELL AT CUNCOLIM INDUSTRIAL ESTATE,GOA,15.183614,74.03181,2013,34,136,13.6,6.5,-33.33333333,-3.666666667,429,171.6,0.6864,0.5,8.333333333,0.916666667,0.15,0.075,0.0075,2,10,1.6,13.1439
3194,BORE WELL AT BETHORA INDUSTRIAL ESTATE,GOA,15.386662,74.032969,2013,,0,0,,-466.6666667,-51.33333333,566,226.4,0.9056,,0,0,1,0.5,0.05,450,2250,360,309.6222667
3195,BORE WELL AT MADKAIM INDUSTRIAL ESTATE,GOA,15.420499,73.92638,2013,32,128,12.8,5.6,-93.33333333,-10.26666667,98,39.2,0.1568,0.9,15,1.65,0.98,0.49,0.049,,0,0,4.389133333
1415,"WELL OF LOOMJI, CHAUDHARY, NEAR NAYAGAON, PALI, (U/S 1 KM. FROM PALI TOWN), RAJASTHAN",RAJASTHAN,25.777107,73.349961,2013,25,100,10,8.3,86.66666667,9.533333333,5800,2320,9.28,5.6,93.33333333,10.26666667,2,1,0.1,4,20,3.2,42.38
1416,"WELL OF BHOPAL SINGH, 24 KM. FROM PALI TOWN, RAJASTHAN",RAJASTHAN,25.771089,73.323448,2013,26,104,10.4,8.7,113.3333333,12.46666667,11550,4620,18.48,7.5,125,13.75,4,2,0.2,4,20,3.2,58.49666667
1706,"RIICO PUMP HOUSE NEAR MONTO MOTORS, MIA, ALWAR, RAJASTHAN",RAJASTHAN,27.513952,76.685767,2013,28,112,11.2,8.2,80,8.8,1025,410,1.64,1.6,26.66666667,2.933333333,1,0.5,0.05,4,20,3.2,27.82333333
1708,"WELL KOTHI IN VILLAGE BAGAR RAJPUT, ALWAR, RAJASTHAN",RAJASTHAN,27.518381,76.785587,2013,28,112,11.2,7.9,60,6.6,1800,720,2.88,2.4,40,4.4,1,0.5,0.05,4,20,3.2,28.33
1709,"WELL AT VILLAGE SANTHLA VERY NEAR BHIWADI INDUSTRIAL AREA, BHIWADI, RAJASTHAN",RAJASTHAN,28.207089,76.857682,2013,28,112,11.2,7.7,46.66666667,5.133333333,3100,1240,4.96,2.2,36.66666667,4.033333333,1,0.5,0.05,4,20,3.2,28.57666667
1710,"WELL AT VILLAGE ALUPUR, VERY NEAR BHIWADI INDUSTRIAL AREA, BHIWADI, RAJASTHAN",RAJASTHAN,28.217089,76.867682,2013,27,108,10.8,7.9,60,6.6,2120,848,3.392,1.1,18.33333333,2.016666667,2,1,0.1,,0,0,22.90866667
1711,"WELL AT VILLAGE HARCHANDPUR, VERY NEAR, BHIWADI TO BHIWADI INDUSTRIAL AREA, BHIWADI, RAJASTHAN",RAJASTHAN,28.227089,76.877682,2013,26,104,10.4,7.7,46.66666667,5.133333333,3700,1480,5.92,1.9,31.66666667,3.483333333,4,2,0.2,4,20,3.2,28.33666667
1712,"WELL AT VILLAGE BHIWADI , VERY NEAR, BHIWADI TO BHIWADI INDUSTRIAL AREA, BHIWADI, RAJASTHAN",RAJASTHAN,28.237089,76.887682,2013,27,108,10.8,7.8,53.33333333,5.866666667,2125,850,3.4,1.4,23.33333333,2.566666667,0,0,0,4,20,3.2,25.83333333
1713,"WELL AT VILLAGE GATTAL, NEAR, BHIWADI TO BHIWADI INDUSTRIAL AREA, BHIWADI, RAJASTHAN",RAJASTHAN,28.247089,76.897682,2013,28,112,11.2,7.8,53.33333333,5.866666667,1430,572,2.288,1,16.66666667,1.833333333,1,0.5,0.05,4,20,3.2,24.438
1715,"HAND PUMP NEAR SECONDARY SCHOOL ABOUT 300MT. FROM KANSUA NALLAH KOTA, RAJASTHAN",RAJASTHAN,25.168212,75.892088,2013,30,120,12,7.9,60,6.6,1345,538,2.152,1.5,25,2.75,2,1,0.1,4,20,3.2,26.802
1720,"CHAUDHARY KA WELL VILLAGE PANIALA, KOTAPUTALI NEAR ASSOCIATED ALCOHOL BREVERIES LTD JAIPUR, RAJASTH",RAJASTHAN,27.704581,76.20132,2013,25,100,10,8.1,73.33333333,8.066666667,1295,518,2.072,1.7,28.33333333,3.116666667,0,0,0,7,35,5.6,28.85533333
1721,"PHED WELL NEAR RAILWAY LINE JHOTAWARA, JAIPUR, RAJASTHAN",RAJASTHAN,26.956432,75.741253,2013,28,112,11.2,8.1,73.33333333,8.066666667,485,194,0.776,1.3,21.66666667,2.383333333,2,1,0.1,4,20,3.2,25.726
1723,"HAND PUMP OF VIDHANI VILLAGE GONER ROAD JAIPUR, RAJASTHAN",RAJASTHAN,26.766452,75.918663,2013,26,104,10.4,8,66.66666667,7.333333333,3300,1320,5.28,4.4,73.33333333,8.066666667,1,0.5,0.05,,0,0,31.13
1724,"WELL OF GOOJARON KI TALAI, MOHANA ROAD SANGANER JAIPUR, RAJASTHAN",RAJASTHAN,26.798026,75.770665,2013,26,104,10.4,8.2,80,8.8,1365,546,2.184,1.5,25,2.75,0,0,0,4,20,3.2,27.334
1725,"PUBLIC HAND PUMP BEFORE SANGANER PULIA, RAJASTHAN",RAJASTHAN,26.824105,75.795001,2013,26,104,10.4,7.2,13.33333333,1.466666667,1265,506,2.024,1.3,21.66666667,2.383333333,0,0,0,4,20,3.2,19.474
2015,"PABUPURA ROAD NEAR CIVIL AIR PORT, JODHPUR (MANGILAL RATHOR)",RAJASTHAN,26.250152,73.046908,2013,24,96,9.6,8.1,73.33333333,8.066666667,3550,1420,5.68,1.3,21.66666667,2.383333333,4,2,0.2,4,20,3.2,29.13
2017,"VILLAGE VINAYAKIA, JODHPUR (BADRI KUMHAR)",RAJASTHAN,26.291564,73.02527,2013,23,92,9.2,7.8,53.33333333,5.866666667,2350,940,3.76,1.2,20,2.2,4,2,0.2,4,20,3.2,24.42666667
2018,"VILLAGE VINAYAKIA, JODHPUR (HUKUM SINGH RATHORE)",RAJASTHAN,26.293434,73.024176,2013,25,100,10,7.6,40,4.4,3950,1580,6.32,1.5,25,2.75,2,1,0.1,4,20,3.2,26.77
2019,"NEAR UIT BRIDGE, UDAIPUR",RAJASTHAN,24.597597,73.687717,2013,24,96,9.6,7.2,13.33333333,1.466666667,755,302,1.208,1.1,18.33333333,2.016666667,1,0.5,0.05,,0,0,14.34133333
2020,"NEW FATEHPURA, 200 FT.FROM PANCHWATI NALLAH, UDAIPUR",RAJASTHAN,24.604031,73.688307,2013,24,96,9.6,8,66.66666667,7.333333333,2075,830,3.32,1,16.66666667,1.833333333,1,0.5,0.05,,0,0,22.13666667
2021,"NEAR ARVIND GENERAL STORE, ALOO FACTORY, KACCHI BASTI, SARDARPURA, UDAIPUR",RAJASTHAN,24.597571,73.696663,2013,24,96,9.6,7,0,0,1825,730,2.92,1.2,20,2.2,1,0.5,0.05,,0,0,14.77
2022,"NEAR RANA PRATAP NAGAR, RAILWAY STATION, UDAIPUR",RAJASTHAN,24.582679,73.728544,2013,24,96,9.6,7,0,0,1855,742,2.968,1.3,21.66666667,2.383333333,1,0.5,0.05,,0,0,15.00133333
2023,"HOTEL ORIENT PLACE, SUBHAS NAGAR, UDAIPUR",RAJASTHAN,24.584276,73.716549,2013,24,96,9.6,6.9,-6.666666667,-0.733333333,1990,796,3.184,1,16.66666667,1.833333333,2,1,0.1,4,20,3.2,17.184
2024,"IN SIDE SHIV TEMPLE NEAR AIR FORCE STATION AMER ROAD, JAIPUR",RAJASTHAN,26.959817,75.84446,2013,27,108,10.8,7.4,26.66666667,2.933333333,1500,600,2.4,1.3,21.66666667,2.383333333,0,0,0,,0,0,18.51666667
2025,"NEAR SHREE KALYANESHWAR MAHADEV TEMPLE, JAI SINGH PURA KHURD, JAIPUR.",RAJASTHAN,26.952338,75.869942,2013,26,104,10.4,7.4,26.66666667,2.933333333,2250,900,3.6,1.9,31.66666667,3.483333333,1,0.5,0.05,4,20,3.2,23.66666667
2026,"NEAR FOJI NAGAR, KACCHI BASTI, AMBABARI, JAIPUR.",RAJASTHAN,26.944481,75.779299,2013,26,104,10.4,7.4,26.66666667,2.933333333,1015,406,1.624,1.1,18.33333333,2.016666667,0,0,0,4,20,3.2,20.174
2027,"NEAR ABN CENTRAL ACADEMY, SUSILPURA, SODALA, JAIPUR.",RAJASTHAN,26.92098,75.73542,2013,26,104,10.4,8,66.66666667,7.333333333,1210,484,1.936,1.2,20,2.2,0,0,0,,0,0,21.86933333
2028,"NEAR SAMSHAN VISHWAKARMA NAGAR, MAHARANIFARM, JAIPUR",RAJASTHAN,26.969637,75.787793,2013,26,104,10.4,7.5,33.33333333,3.666666667,1310,524,2.096,1.5,25,2.75,1,0.5,0.05,4,20,3.2,22.16266667
2029,"NEAR GANDHI BHWAN, AJMER",RAJASTHAN,26.458264,74.6362,2013,20,80,8,8.2,80,8.8,875,350,1.4,1,16.66666667,1.833333333,1,0.5,0.05,,0,0,20.08333333
2030,"OPPOSITE PRIVATE BUS STAND, AJMER",RAJASTHAN,26.468309,74.633547,2013,19,76,7.6,7.8,53.33333333,5.866666667,4050,1620,6.48,1.2,20,2.2,2,1,0.1,4,20,3.2,25.44666667
2031,"NEAR 9 NO. PETROL PUMP, NEAR ADARSH NAGAR GATE, AJMER",RAJASTHAN,26.421732,74.65458,2013,20,80,8,8.3,86.66666667,9.533333333,1305,522,2.088,1.7,28.33333333,3.116666667,1,0.5,0.05,,0,0,22.788
2032,"NEAR KHANPURA TALAB, AJMER",RAJASTHAN,26.410438,74.629613,2013,19,76,7.6,8.1,73.33333333,8.066666667,4800,1920,7.68,1.7,28.33333333,3.116666667,2,1,0.1,,0,0,26.56333333
2033,"OUTSIDE JLN HOSPITAL, AJMER",RAJASTHAN,26.469871,74.636565,2013,20,80,8,8,66.66666667,7.333333333,2050,820,3.28,1.9,31.66666667,3.483333333,2,1,0.1,,0,0,22.19666667
2957,"WELL/ HAND PUMPS IN THE RIICO INDUSTRIAL AREA, BANSWARA, RAJASTHAN",RAJASTHAN,23.523831,74.426892,2013,33,132,13.2,7.8,53.33333333,5.866666667,835,334,1.336,1,16.66666667,1.833333333,1,0.5,0.05,,0,0,22.286
2958,"WELL OF SH. BHURA RAM, KHETRI NGAR, JHUNJHUNU, RAJASTHAN",RAJASTHAN,28.072384,75.82289,2013,28,112,11.2,7.9,60,6.6,4150,1660,6.64,5.4,90,9.9,1,0.5,0.05,,0,0,34.39
2959,"WELL OF SH. BRIJA RAM, KHETRI NAGAR, JHUNJHUNU, RAJASTHAN",RAJASTHAN,28.082384,75.83289,2013,29,116,11.6,7.8,53.33333333,5.866666667,4200,1680,6.72,2.2,36.66666667,4.033333333,1,0.5,0.05,4,20,3.2,31.47
2960,"WELL INFRONT OF SINGHANA POLICE STATION, SINGHANA, JHUNJHUNU, RAJASTHAN",RAJASTHAN,28.095301,75.834947,2013,29,116,11.6,7.6,40,4.4,3450,1380,5.52,1.8,30,3.3,1,0.5,0.05,4,20,3.2,28.07
2961,"WELL OF SH MNAGAL CHAND MEENA, MANPUR MACHERI, JAIPUR, RAJASTHAN",RAJASTHAN,27.198102,75.891486,2013,25,100,10,8.2,80,8.8,660,264,1.056,1,16.66666667,1.833333333,0,0,0,4,20,3.2,24.88933333
2962,"WELL OF SH MOOL CHAND RAIGER, MANPUR MACHERI, JAIPUR, RAJASTHAN",RAJASTHAN,27.188102,75.881486,2013,25,100,10,8,66.66666667,7.333333333,379,151.6,0.6064,1.2,20,2.2,0,0,0,,0,0,20.13973333
2963,"WELL OF RIICO AT LEATHER COMPLEX, MANPUR MACHERI, JAIPUR, RAJASTHAN",RAJASTHAN,27.178102,75.871486,2013,25,100,10,8,66.66666667,7.333333333,565,226,0.904,0.7,11.66666667,1.283333333,0,0,0,4,20,3.2,22.72066667
2964,"WELL AT INDIA PUBLIC SCHOOL, MANPUR MACHERI, JAIPUR, RAJASTHAN",RAJASTHAN,27.168102,75.861486,2013,24,96,9.6,8,66.66666667,7.333333333,1015,406,1.624,1.3,21.66666667,2.383333333,0,0,0,,0,0,20.94066667
2965,"SHRI GIRDHARI SINGH CHOUDHARY NEAR BANDI RIVER BRIDGE, PALI BYE PASS ROAD, PALI, RAJASTHAN",RAJASTHAN,25.324904,73.005239,2013,25,100,10,8,66.66666667,7.333333333,3648,1459.2,5.8368,5.9,98.33333333,10.81666667,3,1.5,0.15,,0,0,34.1368
2966,"SHRI GIRDHARI SINGH RAJPUROHIT NEAR VILLAGE PUNAYATA, JODHPUR- SUMERPUR BYE PASS ROAD, PALI, RAJASTHAN",RAJASTHAN,25.757737,73.324348,2013,25,100,10,8.5,100,11,6500,2600,10.4,2.2,36.66666667,4.033333333,2,1,0.1,4,20,3.2,38.73333333
2967,"SH. POL SINGH PUROHIT, VILLAGE PUNAYATA, PALI, RAJASTHAN",RAJASTHAN,25.769872,73.310442,2013,24,96,9.6,8.3,86.66666667,9.533333333,6200,2480,9.92,1.9,31.66666667,3.483333333,1,0.5,0.05,4,20,3.2,35.78666667
2968,"SH. BHANA RAM KALAL, DHARU NAGAR, NEAR MAIN MANDIA ROAD, OPP. VILLAGE MANDIA, PALI, RAJASTHAN",RAJASTHAN,25.762159,73.27705,2013,24,96,9.6,8.4,93.33333333,10.26666667,12300,4920,19.68,2.7,45,4.95,4,2,0.2,4,20,3.2,47.89666667
2969,"M/S SPECIALTY SILICA LTD., MIA ALWAR AGRO FOOD PARK, ALWAR, RAJASTHAN",RAJASTHAN,27.498873,76.702016,2013,28,112,11.2,7.3,20,2.2,1100,440,1.76,2,33.33333333,3.666666667,2,1,0.1,4,20,3.2,22.12666667
2970,"RIICO TUBE WELL, RIA, BEHROR, RAJASTHAN",RAJASTHAN,27.879994,76.279998,2013,28,112,11.2,7.9,60,6.6,1675,670,2.68,1.6,26.66666667,2.933333333,2,1,0.1,,0,0,23.51333333
2971,"RIICO TUBE WELL, RIA, NEEMRANA, RAJASTHAN",RAJASTHAN,27.886716,76.283391,2013,28,112,11.2,7.8,53.33333333,5.866666667,1950,780,3.12,1.8,30,3.3,1,0.5,0.05,,0,0,23.53666667
2972,"RIICO TUBE WELL, RIA, SOTANALA, RAJASTHAN",RAJASTHAN,27.985408,76.382737,2013,27,108,10.8,8,66.66666667,7.333333333,2250,900,3.6,1.2,20,2.2,1,0.5,0.05,4,20,3.2,27.18333333
2973,"RIICO TUBE WELL, RIA, SHAHJAHANPUR, RAJASTHAN",RAJASTHAN,27.99516,76.450034,2013,27,108,10.8,8,66.66666667,7.333333333,1665,666,2.664,1.5,25,2.75,1,0.5,0.05,4,20,3.2,26.79733333
2974,"VILLAGE AGYARA, TEHSIL- RAMGARH, ALWAR, RAJASTHAN",RAJASTHAN,27.505567,76.742309,2013,27,108,10.8,7.9,60,6.6,2580,1032,4.128,0.7,11.66666667,1.283333333,2,1,0.1,4,20,3.2,26.11133333
2975,"VILLAGE BAGER MEO, TEHSIL- RAMGARH, ALWAR, RAJASTHAN",RAJASTHAN,27.52657,76.750966,2013,28,112,11.2,7.8,53.33333333,5.866666667,2700,1080,4.32,1.4,23.33333333,2.566666667,2,1,0.1,4,20,3.2,27.25333333
2976,"SUJAN GANGA, BHARATPUR, RAJASTHAN",RAJASTHAN,27.223613,77.496048,2013,26,104,10.4,7.8,53.33333333,5.866666667,6650,2660,10.64,4.3,71.66666667,7.883333333,1,0.5,0.05,14,70,11.2,46.04
2977,"WELL OF RAM CHANDRA DEWRA, VILLAGE- SANGARIA, JODHPUR, RAJASTHAN",RAJASTHAN,26.198111,73.004708,2013,23,92,9.2,7.8,53.33333333,5.866666667,21500,8600,34.4,6.7,111.6666667,12.28333333,6,3,0.3,4,20,3.2,65.25
2982,"WELL OF BIRMA RAM PATEL, SALAWAS, JODHPUR, RAJASTHAN",RAJASTHAN,26.129863,72.999201,2013,22,88,8.8,7.7,46.66666667,5.133333333,1285,514,2.056,1.8,30,3.3,0,0,0,4,20,3.2,22.48933333
2985,"WELL OF GIRDHARI RAM MEGHWAL, VILLAGE- NANDWAN, JODHPUR, RAJASTHAN",RAJASTHAN,26.118774,72.978535,2013,23,92,9.2,7.4,26.66666667,2.933333333,14050,5620,22.48,5.7,95,10.45,4,2,0.2,4,20,3.2,48.46333333
2986,"TUBE WELL OF GIRDHARI LAL, BHITUJA, RAJASTHAN",RAJASTHAN,25.813664,72.289671,2013,25,100,10,7.8,53.33333333,5.866666667,10500,4200,16.8,3,50,5.5,2,1,0.1,,0,0,38.26666667
2987,"CWR OF PHED, BHITUJA, RAJASTHAN",RAJASTHAN,25.823664,72.299671,2013,24,96,9.6,7.7,46.66666667,5.133333333,9750,3900,15.6,2.3,38.33333333,4.216666667,5,2.5,0.25,,0,0,34.8
2988,"WELL OF PEMA RAM MALI, BHITUJA, RAJASTHAN",RAJASTHAN,25.833664,72.269671,2013,25,100,10,7.6,40,4.4,9400,3760,15.04,2.3,38.33333333,4.216666667,3,1.5,0.15,,0,0,33.80666667
2989,"WELL OF BABULAL UKKAD JI MALI, SAKARNA BERA, BALOTRA, , JODHPUR, RAJASTHAN",RAJASTHAN,26.211365,72.95381,2013,27,108,10.8,7.7,46.66666667,5.133333333,20500,8200,32.8,3.4,56.66666667,6.233333333,11,5.5,0.55,4,20,3.2,58.71666667
2990,"WELL OF BHIKSINGH S/O AMAR SINGH PUROHIT, SAKARNA BERA, BALOTRA, JODHPUR, RAJASTHAN",RAJASTHAN,26.221365,72.96381,2013,26,104,10.4,7.6,40,4.4,14750,5900,23.6,2.5,41.66666667,4.583333333,4,2,0.2,4,20,3.2,46.38333333
2991,"WELL OF BHAG JI LAXMAN RAM MALI, SAKARNA BERA, BALOTRA, JODHPUR, RAJASTHAN",RAJASTHAN,26.231365,72.97381,2013,26,104,10.4,7.7,46.66666667,5.133333333,10200,4080,16.32,2.6,43.33333333,4.766666667,2,1,0.1,4,20,3.2,39.92
2993,"WELL OF CHOUTHA RAM PUSA PAM, LEFT SIDE OF BRIDGE LUNI, BALOTRA, RAJASTHAN",RAJASTHAN,26.241365,72.98381,2013,24,96,9.6,7.5,33.33333333,3.666666667,15050,6020,24.08,5.2,86.66666667,9.533333333,1,0.5,0.05,,0,0,46.93
3000,"BORE WELL SH. UMESH KUMAR S/O SH. HORIDWARI RAM 3A-16 UIT, BHUTIJA, RAJASTHAN",RAJASTHAN,26.187469,72.934047,2013,26,104,10.4,7.6,40,4.4,3500,1400,5.6,2.7,45,4.95,1,0.5,0.05,4,20,3.2,28.6
3001,"BORE WELL SH. BHRAM JEET SERVICE STATION, BHIWADI, RAJASTHAN",RAJASTHAN,28.208822,76.8446,2013,27,108,10.8,7.8,53.33333333,5.866666667,1790,716,2.864,1,16.66666667,1.833333333,2,1,0.1,4,20,3.2,24.664
3002,"BORE WELL M/S R.C. PALACE HOTEL, BHIWADI, RAJASTHAN",RAJASTHAN,28.218822,76.8546,2013,26,104,10.4,8.1,73.33333333,8.066666667,855,342,1.368,1.4,23.33333333,2.566666667,2,1,0.1,4,20,3.2,25.70133333
3003,"BORE WELL OFFICE OF RAJ. HOUSING BOARD, BHIWADI, RAJASTHAN",RAJASTHAN,28.228822,76.8646,2013,27,108,10.8,7.8,53.33333333,5.866666667,2850,1140,4.56,2.1,35,3.85,2,1,0.1,4,20,3.2,28.37666667
3004,"BORE WELL OF M/S MODERN PUBLIC SCHOOL, BHIWADI, RAJASTHAN",RAJASTHAN,28.238822,76.8746,2013,27,108,10.8,8,66.66666667,7.333333333,1350,540,2.16,0.9,15,1.65,1,0.5,0.05,4,20,3.2,25.19333333
3006,"HAND PUMP NEAR NEVTA TIRAHA, NEVTA DAM, SANGANER, JAIPUR, RAJASTHAN",RAJASTHAN,26.804632,75.680706,2013,23,92,9.2,8.2,80,8.8,2050,820,3.28,1.3,21.66666667,2.383333333,0,0,0,4,20,3.2,26.86333333
1736,"GROUND WATER QUALITY STATION SARDARNAGAR, U.P",UTTAR PRADESH,26.684689,83.556316,2013,24,96,9.6,6.9,-6.666666667,-0.733333333,1064,425.6,1.7024,5.2,86.66666667,9.533333333,4,2,0.2,60,300,48,68.3024
1737,"GROUND WATER QUALITY STATION CAPTANGANJ, U.P",UTTAR PRADESH,26.927004,83.713722,2013,25,100,10,7,0,0,824,329.6,1.3184,3.7,61.66666667,6.783333333,3,1.5,0.15,40,200,32,50.25173333
1738,"SITE 1, INDUSTRIAL AREA NEAR M/S WOODWARM CHEMICAL LTD., UNNAO, U.P",UTTAR PRADESH,26.475797,80.365282,2013,28,112,11.2,7.4,26.66666667,2.933333333,835,334,1.336,0.6,10,1.1,3,1.5,0.15,,0,0,16.71933333
1739,"SITE 2, INDUSTRIAL AREA NEAR M/S AMIN SONS, UNNAO, U.P",UTTAR PRADESH,26.465797,80.355282,2013,28,112,11.2,6.8,-13.33333333,-1.466666667,4810,1924,7.696,0.7,11.66666667,1.283333333,25,12.5,1.25,,0,0,19.96266667
1740,"AT ROADWAYS BUS STATION, UNNAO, U.P",UTTAR PRADESH,26.479062,80.336107,2013,28,112,11.2,6.9,-6.666666667,-0.733333333,2545,1018,4.072,0.8,13.33333333,1.466666667,25,12.5,1.25,,0,0,17.25533333
1741,"MAGAWARA INDUSTRIAL AREA NEAR M/S JAMJAM TANNERS, UNNAO, U.P",UTTAR PRADESH,26.518812,80.42987,2013,28,112,11.2,7.3,20,2.2,1074,429.6,1.7184,0.5,8.333333333,0.916666667,25,12.5,1.25,,0,0,17.28506667
1742,"CHINHAT INDUSTRIAL AREA IN LUCKNOW NEAR M/S INDIA PESTICIDES LUCKNOW, U.P",UTTAR PRADESH,26.913917,81.068604,2013,25,100,10,7.2,13.33333333,1.466666667,626,250.4,1.0016,0.1,1.666666667,0.183333333,3,1.5,0.15,,0,0,12.8016
1743,"AISHBAGH INDUSTRIAL AREA AT LUCKNOW NEAR M/S EVEREADY INDUSTRIES LTD. LUCKNOW, U.P",UTTAR PRADESH,26.837077,80.901394,2013,29,116,11.6,6.9,-6.666666667,-0.733333333,1306,522.4,2.0896,0.2,3.333333333,0.366666667,25,12.5,1.25,,0,0,14.57293333
1746,"NAGAR PALIKA TUBE WELL, SULTANPUR, U.P",UTTAR PRADESH,26.261875,82.07485,2013,22,88,8.8,7.6,40,4.4,,0,0,,0,0,,0,0,,0,0,13.2
1747,"INDIA MARKA HAND PUMP IN SAROWNI BLOCK AT RAIBAREILLY, U.P",UTTAR PRADESH,26.157845,80.833627,2013,22,88,8.8,7.8,53.33333333,5.866666667,780,312,1.248,,0,0,0,0,0,,0,0,15.91466667
1749,"TUBE WELL AT MEERUT CITY, U.P",UTTAR PRADESH,28.996407,77.718166,2013,24,96,9.6,5.6,-93.33333333,-10.26666667,723,289.2,1.1568,,0,0,0,0,0,,0,0,0.490133333
1750,"TUBE WELL AT BAGPAT CITY, U.P",UTTAR PRADESH,28.946343,77.214396,2013,24,96,9.6,7.6,40,4.4,580,232,0.928,,0,0,1,0.5,0.05,,0,0,14.978
1752,"SAHIBABAD INDUSTRIAL AREA, GHAZIABAD, U.P",UTTAR PRADESH,28.675426,77.344899,2013,22,88,8.8,7.3,20,2.2,248,99.2,0.3968,2,33.33333333,3.666666667,1,0.5,0.05,,0,0,15.11346667
1753,"MEERUT ROAD INDUSTRIAL AREA GHAZIABAD, U.P",UTTAR PRADESH,28.694192,77.443993,2013,22,88,8.8,7.3,20,2.2,2285,914,3.656,2.9,48.33333333,5.316666667,3,1.5,0.15,,0,0,20.12266667
1754,"HAPUR ROAD INDUSTRIAL AREA  GHAZIABAD, U.P",UTTAR PRADESH,28.648272,77.467756,2013,21,84,8.4,7.4,26.66666667,2.933333333,1715,686,2.744,2.3,38.33333333,4.216666667,2,1,0.1,,0,0,18.394
1755,"PILKHUA INDUSTRIAL AREA GHAZIABAD, U.P",UTTAR PRADESH,28.715623,77.647508,2013,22,88,8.8,7.5,33.33333333,3.666666667,1035,414,1.656,2.6,43.33333333,4.766666667,2.48,1.24,0.124,,0,0,19.01333333
1757,"MIRZAPUR INDUSTRIAL AREA, U.P",UTTAR PRADESH,25.144926,82.562847,2013,25,100,10,7.5,33.33333333,3.666666667,1265,506,2.024,0.2,3.333333333,0.366666667,0.17,0.085,0.0085,,0,0,16.06583333
1759,"IFFCO, PHOOLPUR, ALLAHABAD, U.P",UTTAR PRADESH,25.534022,82.067006,2013,25,100,10,7,0,0,1295,518,2.072,0.4,6.666666667,0.733333333,7,3.5,0.35,,0,0,13.15533333
1760,"M/S KANORIA CHEMICAL SONBHADRA, U.P",UTTAR PRADESH,24.218243,83.034607,2013,25,100,10,6.7,-20,-2.2,1218,487.2,1.9488,1.2,20,2.2,2,1,0.1,,0,0,12.0488
1761,"TUBE WELL IN SINGRAULI INDUSTRIAL AREA, U.P",UTTAR PRADESH,24.105168,82.706384,2013,25,100,10,7.5,33.33333333,3.666666667,1226,490.4,1.9616,0.4,6.666666667,0.733333333,18.67,9.335,0.9335,,0,0,17.2951
2469,"AT INDUSTRIAL AREA. NAINI, ALLAHABAD",UTTAR PRADESH,25.353333,81.878549,2013,26,104,10.4,7.5,33.33333333,3.666666667,1197,478.8,1.9152,0.4,6.666666667,0.733333333,1.45,0.725,0.0725,,0,0,16.7877
2470,"AT INDUSTRIAL AREA, FATEHPUR",UTTAR PRADESH,28.57609,77.372153,2013,25,100,10,7.4,26.66666667,2.933333333,1386,554.4,2.2176,0.5,8.333333333,0.916666667,3.05,1.525,0.1525,,0,0,16.2201
2471,"GORAKHPUR INDUSTRIAL DEVELOPMENT AUTHORITY AREA (GIDA), GORAKHPUR",UTTAR PRADESH,26.73932,83.271287,2013,24,96,9.6,7.8,53.33333333,5.866666667,450,180,0.72,2.3,38.33333333,4.216666667,0.01,0.005,0.0005,70,350,56,76.40383333
2472,"VILLAGE DAURALA, MEERUT",UTTAR PRADESH,29.113,77.703,2013,24,96,9.6,7.4,26.66666667,2.933333333,863,345.2,1.3808,20,333.3333333,36.66666667,1,0.5,0.05,,0,0,50.6308
2473,"KHEKRA, BAGHPAT",UTTAR PRADESH,28.864472,77.280621,2013,25,100,10,7.5,33.33333333,3.666666667,1000,400,1.6,,0,0,0.2,0.1,0.01,,0,0,15.27666667
2477,NEAR ARYA KANYA INTER COLLEGE. JALAUN,UTTAR PRADESH,25.9865,79.447118,2013,27,108,10.8,7.5,33.33333333,3.666666667,1093,437.2,1.7488,394,6566.666667,722.3333333,0,0,0,,0,0,738.5488
2478,"DEVA ROAD, INDUSTRIAL AREA, CHAINHAT, LKO NEAR UPTRON POLICE CHOWKI, LUCKNOW",UTTAR PRADESH,26.888808,81.043585,2013,25,100,10,7.1,6.666666667,0.733333333,577,230.8,0.9232,0.3,5,0.55,0.2,0.1,0.01,,0,0,12.21653333
2480,"NEAR BRAHMAN MAJRA, PILKHANI",UTTAR PRADESH,29.826041,77.512128,2013,22,88,8.8,7.5,33.33333333,3.666666667,387,154.8,0.6192,,0,0,0,0,0,,0,0,13.08586667
1767,"DURGAPUR TOWN, NEAR IISCO, BURDWAN, WEST BENGAL",WEST BENGAL,23.692302,86.949886,2013,27,108,10.8,7.9,60,6.6,426,170.4,0.6816,0.5,8.333333333,0.916666667,0.88,0.44,0.044,2,10,1.6,20.64226667
1768,"DURGAPUR TOWN, BURDWAN, WEST BENGAL",WEST BENGAL,23.520444,87.311923,2013,27,108,10.8,7.5,33.33333333,3.666666667,1077,430.8,1.7232,0.7,11.66666667,1.283333333,4,2,0.2,3,15,2.4,20.0732
1769,"INSIDE HINDUSTAN LIVER FACTORY, HALDIA, WEST BENGAL",WEST BENGAL,25.343333,81.898549,2013,30,120,12,7.5,33.33333333,3.666666667,2251,900.4,3.6016,0.9,15,1.65,0.09,0.045,0.0045,,0,0,20.92276667
1770,"NEAR IOC REFINERY HALDIA, WEST BENGAL",WEST BENGAL,22.049473,88.107933,2013,34,136,13.6,7.4,26.66666667,2.933333333,2130,852,3.408,1.4,23.33333333,2.566666667,0,0,0,,0,0,22.508
1771,"KALYANI INDUSTRIAL AREA, NADIA, WEST BENGAL",WEST BENGAL,22.977156,88.459477,2013,28,112,11.2,7.1,6.666666667,0.733333333,702,280.8,1.1232,0.6,10,1.1,0.29,0.145,0.0145,,0,0,14.17103333
1772,"BARSAT MUNICIPALITY NORTH 24-P, WEST BENGAL",WEST BENGAL,22.91648,88.828701,2013,27,108,10.8,7.2,13.33333333,1.466666667,914,365.6,1.4624,1.2,20,2.2,0.68,0.34,0.034,8,40,6.4,22.36306667
1773,"TANGRA, CALCUTTA ,WEST BENGAL",WEST BENGAL,22.557717,88.386659,2013,29,116,11.6,7.6,40,4.4,1810,724,2.896,1.2,20,2.2,0.24,0.12,0.012,,0,0,21.108
1774,"TOPSIA CALCUTTA, WEST BENGAL",WEST BENGAL,22.533661,88.390152,2013,30,120,12,7.4,26.66666667,2.933333333,1740,696,2.784,1.3,21.66666667,2.383333333,0,0,0,23,115,18.4,38.50066667
1775,"DHAPA CALCUTTA, WEST BENGAL",WEST BENGAL,22.560235,88.442108,2013,29,116,11.6,7.3,20,2.2,1826,730.4,2.9216,1.2,20,2.2,1,0.5,0.05,,0,0,18.9716
1776,"GARIA CALCUTTA, WEST BENGAL",WEST BENGAL,22.462946,88.396754,2013,28,112,11.2,7.5,33.33333333,3.666666667,1121,448.4,1.7936,1,16.66666667,1.833333333,0,0,0,,0,0,18.4936
1777,"BEHALA CALCUTTA, WEST BENGAL",WEST BENGAL,22.49814,88.310838,2013,28,112,11.2,7.5,33.33333333,3.666666667,906,362.4,1.4496,0.9,15,1.65,0,0,0,2,10,1.6,19.56626667
1778,"DOMJUR HOWRAH, WEST BENGAL",WEST BENGAL,22.62794,88.221773,2013,27,108,10.8,7.5,33.33333333,3.666666667,713,285.2,1.1408,1.5,25,2.75,0,0,0,,0,0,18.35746667
1779,"DANKUNI (NEAR COAL COMPLEX), WEST BENGAL",WEST BENGAL,22.686958,88.302058,2013,28,112,11.2,7.5,33.33333333,3.666666667,927,370.8,1.4832,0.7,11.66666667,1.283333333,0,0,0,,0,0,17.6332
1813,"RISHRA, WEST BENGAL",WEST BENGAL,22.724402,88.32879,2013,28,112,11.2,7.3,20,2.2,728,291.2,1.1648,1,16.66666667,1.833333333,0,0,0,,0,0,16.39813333
1931,COSSIPORE - NORTH KOLKATA,WEST BENGAL,22.618679,88.377091,2013,29,116,11.6,7.2,13.33333333,1.466666667,2327,930.8,3.7232,0.4,6.666666667,0.733333333,0.42,0.21,0.021,18,90,14.4,31.9442
1932,CENTRAL KOLKATA,WEST BENGAL,22.57247,88.358788,2013,29,116,11.6,7.4,26.66666667,2.933333333,1007,402.8,1.6112,0.9,15,1.65,0.52,0.26,0.026,,0,0,17.82053333
1933,"NEAR GALVANISATION UNIT, HOWRAH",WEST BENGAL,22.595769,88.263639,2013,27,108,10.8,7.3,20,2.2,1457,582.8,2.3312,0.8,13.33333333,1.466666667,0,0,0,,0,0,16.79786667
1934,CENTRAL HOWRAH-RESIDENTAIL AREA,WEST BENGAL,22.491263,88.377062,2013,27,108,10.8,7.6,40,4.4,985,394,1.576,0.5,8.333333333,0.916666667,1,0.5,0.05,110,550,88,105.7426667
1935,INSIDE KOLKATA LEATHER COMPLEX,WEST BENGAL,22.506999,88.521176,2013,30,120,12,7.3,20,2.2,1479,591.6,2.3664,0.9,15,1.65,0.45,0.225,0.0225,,0,0,18.2389
1936,RESIDENTIAL AREA - SONARPUR,WEST BENGAL,22.445782,88.412364,2013,27,108,10.8,7.7,46.66666667,5.133333333,857,342.8,1.3712,0.5,8.333333333,0.916666667,0,0,0,,0,0,18.2212
1937,RAJARHAT - NEW TOWNSHIP,WEST BENGAL,22.597781,88.476717,2013,29,116,11.6,7.3,20,2.2,1806,722.4,2.8896,0.6,10,1.1,0.6,0.3,0.03,,0,0,17.8196
1938,BSIRHAT MUNICIPALITY,WEST BENGAL,22.657402,88.867177,2013,28,112,11.2,7.5,33.33333333,3.666666667,2207,882.8,3.5312,1.3,21.66666667,2.383333333,0.64,0.32,0.032,6,30,4.8,25.6132
1939,BARRAKPORE MUNICIPALITY,WEST BENGAL,22.767428,88.388346,2013,28,112,11.2,7.3,20,2.2,372,148.8,0.5952,0.6,10,1.1,0.6,0.3,0.03,17,85,13.6,28.7252
1940,NEAR THE PHOSPHATE COMPANY-RISHRA,WEST BENGAL,22.730187,88.34491,2013,28,112,11.2,7.7,46.66666667,5.133333333,405,162,0.648,0.7,11.66666667,1.283333333,0,0,0,,0,0,18.26466667
1941,"NEAR FLY ASH DUMPING SITE-KUNTIGHAT, BANDEL",WEST BENGAL,22.995361,88.402922,2013,27,108,10.8,7.7,46.66666667,5.133333333,401,160.4,0.6416,1.1,18.33333333,2.016666667,0,0,0,,0,0,18.5916
1942,NEAR EXIDE INDUSTRIES-HALDIA,WEST BENGAL,22.064251,88.133714,2013,32,128,12.8,7.4,26.66666667,2.933333333,1668,667.2,2.6688,0.8,13.33333333,1.466666667,0,0,0,,0,0,19.8688
1943,"INSIDE TATA METALIKS, KHARAGPUR",WEST BENGAL,22.386633,87.285228,2013,32,128,12.8,7.5,33.33333333,3.666666667,562,224.8,0.8992,1.2,20,2.2,0,0,0,,0,0,19.56586667
1944,KHARAGPUR INDUSTRIAL AREA,WEST BENGAL,22.334257,87.339104,2013,30,120,12,6.7,-20,-2.2,110,44,0.176,1.2,20,2.2,2,1,0.1,,0,0,12.276
1945,ENGLISH BAZAR- MALDAH,WEST BENGAL,25.010841,88.141097,2013,25,100,10,7.2,13.33333333,1.466666667,590,236,0.944,0.7,11.66666667,1.283333333,0.6,0.3,0.03,,0,0,13.724
2510,GEOKHALI BUNGLOW MIDNAPUR-EAST,WEST BENGAL,22.204741,88.047666,2013,29,116,11.6,8,66.66666667,7.333333333,986,394.4,1.5776,0.5,8.333333333,0.916666667,0,0,0,,0,0,21.4276
2515,"SDO OFFICE, RANAGHAT",WEST BENGAL,23.173205,88.555846,2013,29,116,11.6,7.6,40,4.4,501,200.4,0.8016,0.5,8.333333333,0.916666667,0.65,0.325,0.0325,,0,0,17.75076667
2516,"SDO OFFICE, KRISHNANAGAR",WEST BENGAL,23.406388,88.482331,2013,27,108,10.8,7.1,6.666666667,0.733333333,588,235.2,0.9408,0.7,11.66666667,1.283333333,0.62,0.31,0.031,,0,0,13.78846667
2526,FULBARI BARRAGE,WEST BENGAL,26.645142,88.400657,2013,19,76,7.6,7.1,6.666666667,0.733333333,158,63.2,0.2528,1.7,28.33333333,3.116666667,1.2,0.6,0.06,26,130,20.8,32.5628
2528,GROUND WATER POINT INSIDE BURDWAN UNIVERSITY,WEST BENGAL,23.2392,87.8513,2013,28,112,11.2,7.3,20,2.2,746,298.4,1.1936,0.7,11.66666667,1.283333333,0.76,0.38,0.038,,0,0,15.91493333
2529,GROUND WATER POINT NEAR BURDWAN STATION,WEST BENGAL,23.250189,87.869631,2013,29,116,11.6,7.1,6.666666667,0.733333333,604,241.6,0.9664,0.4,6.666666667,0.733333333,1,0.5,0.05,,0,0,14.08306667
2530,HOT SPRING AT BAKRESHWAR,WEST BENGAL,23.88148,87.370527,2013,67,268,26.8,9.1,140,15.4,589,235.6,0.9424,3.1,51.66666667,5.683333333,0,0,0,,0,0,48.82573333
2533,SURI TOWN NEAR BUS STAND,WEST BENGAL,23.901296,87.527597,2013,29,116,11.6,7.9,60,6.6,965,386,1.544,0.7,11.66666667,1.283333333,1,0.5,0.05,,0,0,21.07733333
2535,VISVA BHARATI,WEST BENGAL,23.679624,87.6895,2013,28,112,11.2,7.6,40,4.4,509,203.6,0.8144,0.3,5,0.55,0,0,0,,0,0,16.9644
2536,NALHATI RAILWAY STATION OF BIRBHUM,WEST BENGAL,24.295832,87.838779,2013,28,112,11.2,7.4,26.66666667,2.933333333,1020,408,1.632,0.7,11.66666667,1.283333333,7,3.5,0.35,,0,0,17.39866667
2537,BOLPUR NEAR RAILWAY STATION,WEST BENGAL,23.658545,87.69859,2013,28,112,11.2,6.6,-26.66666667,-2.933333333,565,226,0.904,0.9,15,1.65,3,1.5,0.15,3,15,2.4,13.37066667
2538,MOREGRAM CROSSING,WEST BENGAL,23.495699,87.455074,2013,28,112,11.2,7.4,26.66666667,2.933333333,303,121.2,0.4848,0.8,13.33333333,1.466666667,1,0.5,0.05,,0,0,16.1348
2540,SATI GHAT AT BANKURA TOWN,WEST BENGAL,23.239772,87.074118,2013,28,112,11.2,7.6,40,4.4,1837,734.8,2.9392,0.9,15,1.65,0.89,0.445,0.0445,2,10,1.6,21.8337
2542,DWARIKA AT BISHNUPUR TOWN,WEST BENGAL,23.108676,87.309833,2013,29,116,11.6,6.6,-26.66666667,-2.933333333,390,156,0.624,1.8,30,3.3,0.99,0.495,0.0495,,0,0,12.64016667
2543,SDO OFFICE AT BISHNUPUR TOWN,WEST BENGAL,23.068351,87.314499,2013,29,116,11.6,6.3,-46.66666667,-5.133333333,120,48,0.192,0.5,8.333333333,0.916666667,3.98,1.99,0.199,,0,0,7.774333333
2545,GROUND WATER POINT AT PURULIA RK MISSION,WEST BENGAL,23.354814,86.394442,2013,28,112,11.2,7.6,40,4.4,1313,525.2,2.1008,0.5,8.333333333,0.916666667,4,2,0.2,8,40,6.4,25.21746667
2546,ULUBERIA COLLEGE AT HOWRAH,WEST BENGAL,22.469347,88.107326,2013,28,112,11.2,7.6,40,4.4,1035,414,1.656,0.4,6.666666667,0.733333333,0.02,0.01,0.001,8,40,6.4,24.39033333
